[{"reg":"Волгоград","regions":[{"name":"Абхазия","lat":42.9892,"lon":40.9835,"weight":5.07,"level1":[{"name":"Абхазия","weight":2.08,"level2":null},{"name":"Гагра","weight":1.56,"level2":null},{"name":"Гудаута","weight":0.07,"level2":null},{"name":"Новый Афон","weight":0.29,"level2":null},{"name":"Пицунда","weight":0.91,"level2":null},{"name":"Сухум","weight":0.16,"level2":null}]},{"name":"Австралия","lat":-25.5788,"lon":134.3596,"weight":0.17,"level1":null},{"name":"Австрия","lat":47.5871,"lon":14.1413,"weight":0.43,"level1":[{"name":"Австрия","weight":0.2,"level2":null},{"name":"Вена","weight":0.23,"level2":null}]},{"name":"Азербайджан","lat":40.36,"lon":47.6515,"weight":0.21,"level1":[{"name":"Азербайджан","weight":0.1,"level2":null},{"name":"Баку","weight":0.11,"level2":null}]},{"name":"Албания","lat":41.1394,"lon":20.0646,"weight":0.03,"level1":null},{"name":"Андорра","lat":42.5453,"lon":1.5763,"weight":0.05,"level1":null},{"name":"Аргентина","lat":-35.1949,"lon":-65.102,"weight":0.05,"level1":null},{"name":"Армения","lat":40.2927,"lon":44.9395,"weight":0.19,"level1":[{"name":"Армения","weight":0.13,"level2":null},{"name":"Ереван","weight":0.06,"level2":null}]},{"name":"Беларусь","lat":53.5312,"lon":28.031,"weight":0.67,"level1":[{"name":"Беларусь","weight":0.34,"level2":null},{"name":"Брестская область","weight":0.04,"level2":null},{"name":"Минская область","weight":0.29,"level2":[{"name":"Минская область","weight":0.05},{"name":"Минск","weight":0.24}]}]},{"name":"Бельгия","lat":50.6412,"lon":4.6606,"weight":0.08,"level1":null},{"name":"Болгария","lat":42.7574,"lon":25.2387,"weight":1.56,"level1":[{"name":"Болгария","weight":1.12,"level2":null},{"name":"Албена","weight":0.04,"level2":null},{"name":"Бургас","weight":0.16,"level2":null},{"name":"Варна","weight":0.05,"level2":null},{"name":"Золотые Пески","weight":0.1,"level2":null},{"name":"София","weight":0.09,"level2":null}]},{"name":"Бразилия","lat":-10.7765,"lon":-53.069,"weight":0.17,"level1":[{"name":"Бразилия","weight":0.11,"level2":null},{"name":"Рио-де-Жанейро","weight":0.06,"level2":null}]},{"name":"Великобритания","lat":53.9446,"lon":-2.5507,"weight":0.69,"level1":[{"name":"Великобритания","weight":0.18,"level2":null},{"name":"Англия","weight":0.47,"level2":[{"name":"Англия","weight":0.1},{"name":"Лондон","weight":0.37}]},{"name":"Шотландия","weight":0.04,"level2":null}]},{"name":"Венгрия","lat":47.1652,"lon":19.4123,"weight":0.27,"level1":[{"name":"Венгрия","weight":0.13,"level2":null},{"name":"Будапешт","weight":0.14,"level2":null}]},{"name":"Вьетнам","lat":15.377,"lon":109.1423,"weight":0.84,"level1":[{"name":"Вьетнам","weight":0.53,"level2":null},{"name":"Нячанг","weight":0.19,"level2":null},{"name":"Фантхьет","weight":0.08,"level2":null},{"name":"Хойан","weight":0.04,"level2":null}]},{"name":"Германия","lat":51.1215,"lon":10.4008,"weight":1.2,"level1":[{"name":"Германия","weight":0.52,"level2":null},{"name":"Бавария","weight":0.2,"level2":[{"name":"Бавария","weight":0.02},{"name":"Мюнхен","weight":0.18}]},{"name":"Берлин","weight":0.28,"level2":null},{"name":"Гамбург","weight":0.03,"level2":null},{"name":"Дюссельдорф","weight":0.04,"level2":null},{"name":"Кёльн","weight":0.08,"level2":null},{"name":"Лейпциг","weight":0.05,"level2":null}]},{"name":"Греция","lat":39.3475,"lon":22.5714,"weight":4.04,"level1":[{"name":"Греция","weight":0.91,"level2":null},{"name":"Афины","weight":0.12,"level2":null},{"name":"Ионические острова","weight":0.2,"level2":[{"name":"Ионические острова","weight":0.01},{"name":"Закинф","weight":0.05},{"name":"Корфу","weight":0.14}]},{"name":"Крит","weight":1.58,"level2":[{"name":"Крит","weight":1.53},{"name":"Ираклион","weight":0.05}]},{"name":"Пиерия","weight":0.07,"level2":[{"name":"Пиерия","weight":0.03},{"name":"Катерини","weight":0.04}]},{"name":"Родос","weight":0.24,"level2":null},{"name":"Салоники","weight":0.03,"level2":null},{"name":"Санторини","weight":0.05,"level2":null},{"name":"Тасос","weight":0.04,"level2":null},{"name":"Халкидики","weight":0.76,"level2":[{"name":"Халкидики","weight":0.73},{"name":"Афон","weight":0.03}]},{"name":"Эвбея","weight":0.04,"level2":null}]},{"name":"Грузия","lat":41.6648,"lon":43.9044,"weight":0.37,"level1":[{"name":"Грузия","weight":0.24,"level2":null},{"name":"Батуми","weight":0.06,"level2":null},{"name":"Тбилиси","weight":0.07,"level2":null}]},{"name":"Дания","lat":56.2623,"lon":9.3364,"weight":0.08,"level1":[{"name":"Дания","weight":0.04,"level2":null},{"name":"Копенгаген","weight":0.04,"level2":null}]},{"name":"Доминиканская Республика","lat":18.8973,"lon":-70.5,"weight":0.49,"level1":[{"name":"Доминиканская Республика","weight":0.36,"level2":null},{"name":"Пунта-Кана","weight":0.13,"level2":null}]},{"name":"Египет","lat":26.5054,"lon":29.8761,"weight":6.76,"level1":[{"name":"Египет","weight":2.11,"level2":null},{"name":"Дахаб","weight":0.03,"level2":null},{"name":"Макади-Бэй","weight":0.26,"level2":null},{"name":"Марса-Алам","weight":0.08,"level2":null},{"name":"Нувейба","weight":0.07,"level2":null},{"name":"Сафага","weight":0.04,"level2":null},{"name":"Сахль-Хашиш","weight":0.09,"level2":null},{"name":"Сома-бэй","weight":0.05,"level2":null},{"name":"Хургада","weight":1.35,"level2":null},{"name":"Шарм-эль-Шейх","weight":2.68,"level2":null}]},{"name":"Израиль","lat":31.552,"lon":35.0611,"weight":0.37,"level1":[{"name":"Израиль","weight":0.2,"level2":null},{"name":"Иерусалим","weight":0.06,"level2":null},{"name":"Тель-Авив","weight":0.06,"level2":null},{"name":"Эйлат","weight":0.05,"level2":null}]},{"name":"Индия","lat":22.4844,"lon":79.7141,"weight":0.62,"level1":[{"name":"Индия","weight":0.31,"level2":null},{"name":"Гоа","weight":0.31,"level2":null}]},{"name":"Индонезия","lat":-0.2094,"lon":114.0046,"weight":0.21,"level1":[{"name":"Индонезия","weight":0.06,"level2":null},{"name":"Бали","weight":0.15,"level2":null}]},{"name":"Иордания","lat":31.2481,"lon":36.7877,"weight":0.04,"level1":null},{"name":"Ирландия","lat":53.1851,"lon":-8.1468,"weight":0.05,"level1":null},{"name":"Исландия","lat":64.9836,"lon":-18.5771,"weight":0.07,"level1":null},{"name":"Испания","lat":40.3877,"lon":-3.5574,"weight":3,"level1":[{"name":"Испания","weight":1.21,"level2":null},{"name":"Андалусия","weight":0.09,"level2":null},{"name":"Балеарские острова","weight":0.14,"level2":[{"name":"Балеарские острова","weight":0.01},{"name":"Ибица","weight":0.03},{"name":"Майорка","weight":0.1}]},{"name":"Барселона","weight":0.45,"level2":null},{"name":"Канарские острова","weight":0.22,"level2":[{"name":"Канарские острова","weight":0.02},{"name":"Тенерифе","weight":0.2}]},{"name":"Коста-Бланка","weight":0.08,"level2":[{"name":"Коста-Бланка","weight":0.03},{"name":"Валенсия","weight":0.05}]},{"name":"Коста-Брава","weight":0.17,"level2":[{"name":"Коста-Брава","weight":0.01},{"name":"Бланес","weight":0.04},{"name":"Льорет-де-Мар","weight":0.12}]},{"name":"Коста-Дорада","weight":0.23,"level2":[{"name":"Коста-Дорада","weight":0.19},{"name":"Салоу","weight":0.04}]},{"name":"Коста-дель-Маресме","weight":0.21,"level2":[{"name":"Коста-дель-Маресме","weight":0.16},{"name":"Калелья","weight":0.05}]},{"name":"Коста-дель-Соль","weight":0.08,"level2":[{"name":"Коста-дель-Соль","weight":0.02},{"name":"Малага","weight":0.06}]},{"name":"Мадрид","weight":0.12,"level2":null}]},{"name":"Италия","lat":43.5292,"lon":12.162,"weight":2.81,"level1":[{"name":"Италия","weight":1.12,"level2":null},{"name":"Венето","weight":0.24,"level2":[{"name":"Венето","weight":0.04},{"name":"Венеция","weight":0.14},{"name":"Езоло","weight":0.06}]},{"name":"Искья","weight":0.03,"level2":null},{"name":"Кампания","weight":0.04,"level2":null},{"name":"Лацио","weight":0.04,"level2":null},{"name":"Лигурия","weight":0.05,"level2":null},{"name":"Ломбардия","weight":0.32,"level2":[{"name":"Ломбардия","weight":0.01},{"name":"Милан","weight":0.31}]},{"name":"Рим","weight":0.39,"level2":null},{"name":"Сицилия","weight":0.13,"level2":null},{"name":"Тоскана","weight":0.14,"level2":[{"name":"Тоскана","weight":0.05},{"name":"Флоренция","weight":0.09}]},{"name":"Эмилия-Романья","weight":0.31,"level2":[{"name":"Эмилия-Романья","weight":0.07},{"name":"Римини","weight":0.24}]}]},{"name":"Кабо-Верде","lat":15.0779,"lon":-23.6354,"weight":0.03,"level1":null},{"name":"Казахстан","lat":48.1362,"lon":67.1535,"weight":0.15,"level1":null},{"name":"Камбоджа","lat":12.7109,"lon":104.9169,"weight":0.13,"level1":[{"name":"Камбоджа","weight":0.06,"level2":null},{"name":"Сиануквиль","weight":0.07,"level2":null}]},{"name":"Канада","lat":62.5367,"lon":-96.3924,"weight":0.16,"level1":null},{"name":"Катар","lat":25.2859,"lon":51.1928,"weight":0.04,"level1":null},{"name":"Кипр","lat":35.2804,"lon":33.6017,"weight":1.18,"level1":[{"name":"Кипр","weight":0.72,"level2":null},{"name":"Айя-Напа","weight":0.15,"level2":null},{"name":"Ларнака","weight":0.03,"level2":null},{"name":"Лимасол","weight":0.03,"level2":null},{"name":"Пафос","weight":0.14,"level2":null},{"name":"Протарас","weight":0.11,"level2":null}]},{"name":"Киргизия","lat":41.4644,"lon":74.5552,"weight":0.04,"level1":null},{"name":"Китай","lat":36.6254,"lon":103.9034,"weight":0.59,"level1":[{"name":"Китай","weight":0.31,"level2":null},{"name":"Гонконг","weight":0.06,"level2":null},{"name":"Гуанчжоу","weight":0.04,"level2":null},{"name":"Пекин","weight":0.08,"level2":null},{"name":"Хайнань","weight":0.06,"level2":null},{"name":"Шанхай","weight":0.04,"level2":null}]},{"name":"Колумбия","lat":3.9094,"lon":-73.0788,"weight":0.03,"level1":null},{"name":"Корея","lat":36.4512,"lon":127.8611,"weight":0.07,"level1":null},{"name":"Коста-Рика","lat":9.9748,"lon":-84.1939,"weight":0.04,"level1":null},{"name":"Куба","lat":21.6105,"lon":-78.9603,"weight":0.35,"level1":[{"name":"Куба","weight":0.26,"level2":null},{"name":"Варадеро","weight":0.05,"level2":null},{"name":"Гавана","weight":0.04,"level2":null}]},{"name":"Латвия","lat":56.8539,"lon":24.9276,"weight":0.11,"level1":[{"name":"Латвия","weight":0.05,"level2":null},{"name":"Рига","weight":0.06,"level2":null}]},{"name":"Литва","lat":55.3373,"lon":23.8836,"weight":0.09,"level1":[{"name":"Литва","weight":0.03,"level2":null},{"name":"Вильнюс","weight":0.06,"level2":null}]},{"name":"Маврикий","lat":-20.2858,"lon":57.568,"weight":0.07,"level1":null},{"name":"Малайзия","lat":3.6061,"lon":114.7126,"weight":0.04,"level1":null},{"name":"Мальдивы","lat":1.9123,"lon":73.5401,"weight":0.44,"level1":[{"name":"Мальдивы","weight":0.35,"level2":null},{"name":"Мале","weight":0.09,"level2":null}]},{"name":"Мальта","lat":35.8906,"lon":14.4395,"weight":0.21,"level1":null},{"name":"Марокко","lat":29.13,"lon":-8.8709,"weight":0.15,"level1":null},{"name":"Мексика","lat":23.9405,"lon":-102.5263,"weight":0.29,"level1":[{"name":"Мексика","weight":0.24,"level2":null},{"name":"Канкун","weight":0.05,"level2":null}]},{"name":"Непал","lat":28.2591,"lon":83.9442,"weight":0.05,"level1":null},{"name":"Нидерланды","lat":52.2458,"lon":5.5652,"weight":0.22,"level1":[{"name":"Нидерланды","weight":0.07,"level2":null},{"name":"Амстердам","weight":0.15,"level2":null}]},{"name":"Новая Зеландия","lat":-43.9482,"lon":170.5025,"weight":0.04,"level1":null},{"name":"Норвегия","lat":64.239,"lon":13.9506,"weight":0.13,"level1":null},{"name":"ОАЭ","lat":23.9073,"lon":54.3341,"weight":1.12,"level1":[{"name":"ОАЭ","weight":0.37,"level2":null},{"name":"Абу-Даби","weight":0.07,"level2":null},{"name":"Дубай","weight":0.53,"level2":null},{"name":"Рас-эль-Хайма","weight":0.08,"level2":null},{"name":"Шарджа","weight":0.07,"level2":null}]},{"name":"Перу","lat":-9.1713,"lon":-74.3568,"weight":0.07,"level1":null},{"name":"Польша","lat":52.129,"lon":19.3937,"weight":0.24,"level1":[{"name":"Польша","weight":0.2,"level2":null},{"name":"Варшава","weight":0.04,"level2":null}]},{"name":"Португалия","lat":39.68,"lon":-7.9687,"weight":0.28,"level1":[{"name":"Португалия","weight":0.22,"level2":null},{"name":"Лиссабон","weight":0.06,"level2":null}]},{"name":"Россия","lat":61.6987,"lon":99.5054,"weight":38.23,"level1":[{"name":"Россия","weight":2.46,"level2":null},{"name":"Адыгея","weight":0.09,"level2":null},{"name":"Республика Алтай","weight":0.04,"level2":null},{"name":"Астраханская область","weight":0.49,"level2":[{"name":"Астрахань","weight":0.49}]},{"name":"Байкал","weight":0.06,"level2":null},{"name":"Башкортостан","weight":0.09,"level2":[{"name":"Башкортостан","weight":0.04},{"name":"Уфа","weight":0.05}]},{"name":"Белгородская область","weight":0.06,"level2":[{"name":"Белгородская область","weight":0.03},{"name":"Белгород","weight":0.03}]},{"name":"Владимирская область","weight":0.16,"level2":[{"name":"Владимирская область","weight":0.04},{"name":"Владимир","weight":0.05},{"name":"Суздаль","weight":0.07}]},{"name":"Волгоградская область","weight":1.55,"level2":[{"name":"Волгоградская область","weight":1.38},{"name":"Камышин","weight":0.17}]},{"name":"Вологодская область","weight":0.03,"level2":null},{"name":"Воронежская область","weight":0.11,"level2":[{"name":"Воронежская область","weight":0.04},{"name":"Воронеж","weight":0.07}]},{"name":"Ивановская область","weight":0.15,"level2":[{"name":"Ивановская область","weight":0.09},{"name":"Плёс","weight":0.06}]},{"name":"Иркутская область","weight":0.03,"level2":null},{"name":"Кабардино-Балкария","weight":0.17,"level2":[{"name":"Кабардино-Балкария","weight":0.14},{"name":"Нальчик","weight":0.03}]},{"name":"Калининградская область","weight":0.18,"level2":[{"name":"Калининградская область","weight":0.04},{"name":"Калининград","weight":0.09},{"name":"Светлогорск","weight":0.05}]},{"name":"Калмыкия","weight":0.18,"level2":[{"name":"Калмыкия","weight":0.02},{"name":"Элиста","weight":0.16}]},{"name":"Калужская область","weight":0.05,"level2":null},{"name":"Карачаево-Черкесия","weight":0.23,"level2":[{"name":"Карачаево-Черкесия","weight":0.05},{"name":"Домбай","weight":0.18}]},{"name":"Карелия","weight":0.09,"level2":null},{"name":"Кемеровская область","weight":0.05,"level2":null},{"name":"Коми","weight":0.04,"level2":null},{"name":"Костромская область","weight":0.08,"level2":[{"name":"Костромская область","weight":0.05},{"name":"Кострома","weight":0.03}]},{"name":"Краснодарский край","weight":17.02,"level2":[{"name":"Краснодарский край","weight":0.38},{"name":"Анапа","weight":1.98},{"name":"Геленджик","weight":2.47},{"name":"Ейск","weight":0.24},{"name":"Краснодар","weight":0.32},{"name":"Новороссийск","weight":0.12},{"name":"Сочи","weight":10.01},{"name":"Темрюкский район","weight":0.14},{"name":"Туапсе","weight":1.36}]},{"name":"Крым","weight":4.32,"level2":[{"name":"Крым","weight":1.74},{"name":"Алушта","weight":0.51},{"name":"Евпатория","weight":0.22},{"name":"Керчь","weight":0.05},{"name":"Коктебель","weight":0.07},{"name":"Кореиз","weight":0.05},{"name":"Саки","weight":0.04},{"name":"Севастополь","weight":0.22},{"name":"Симферополь","weight":0.11},{"name":"Судак","weight":0.12},{"name":"Феодосия","weight":0.19},{"name":"Ялта","weight":1}]},{"name":"Ленинградская область","weight":0.16,"level2":null},{"name":"Москва","weight":2.08,"level2":null},{"name":"Московская область","weight":0.67,"level2":[{"name":"Московская область","weight":0.44},{"name":"Нахабино","weight":0.03},{"name":"Сергиев Посад","weight":0.2}]},{"name":"Нижегородская область","weight":0.16,"level2":[{"name":"Нижегородская область","weight":0.05},{"name":"Нижний Новгород","weight":0.11}]},{"name":"Новгородская область","weight":0.04,"level2":null},{"name":"Новосибирская область","weight":0.06,"level2":[{"name":"Новосибирская область","weight":0.01},{"name":"Новосибирск","weight":0.05}]},{"name":"Оренбургская область","weight":0.07,"level2":null},{"name":"Пензенская область","weight":0.05,"level2":[{"name":"Пензенская область","weight":0.01},{"name":"Пенза","weight":0.04}]},{"name":"Пермский край","weight":0.08,"level2":[{"name":"Пермский край","weight":0.01},{"name":"Пермь","weight":0.07}]},{"name":"Приморский край","weight":0.04,"level2":[{"name":"Приморский край","weight":0.01},{"name":"Владивосток","weight":0.03}]},{"name":"Ростовская область","weight":0.29,"level2":[{"name":"Ростовская область","weight":0.06},{"name":"Ростов-на-Дону","weight":0.23}]},{"name":"Рязанская область","weight":0.04,"level2":[{"name":"Рязань","weight":0.04}]},{"name":"Самарская область","weight":0.17,"level2":[{"name":"Самарская область","weight":0.01},{"name":"Самара","weight":0.12},{"name":"Тольятти","weight":0.04}]},{"name":"Санкт-Петербург","weight":3,"level2":null},{"name":"Саратовская область","weight":0.14,"level2":[{"name":"Саратовская область","weight":0.02},{"name":"Саратов","weight":0.12}]},{"name":"Свердловская область","weight":0.15,"level2":[{"name":"Свердловская область","weight":0.01},{"name":"Екатеринбург","weight":0.14}]},{"name":"Северная Осетия","weight":0.07,"level2":null},{"name":"Ставропольский край","weight":2.23,"level2":[{"name":"Ставропольский край","weight":0.01},{"name":"Ессентуки","weight":0.21},{"name":"Железноводск","weight":0.22},{"name":"Кисловодск","weight":1.23},{"name":"Пятигорск","weight":0.51},{"name":"Ставрополь","weight":0.05}]},{"name":"Тамбовская область","weight":0.04,"level2":null},{"name":"Татарстан","weight":0.56,"level2":[{"name":"Татарстан","weight":0.02},{"name":"Казань","weight":0.54}]},{"name":"Тверская область","weight":0.05,"level2":null},{"name":"Тульская область","weight":0.05,"level2":null},{"name":"Тюменская область","weight":0.1,"level2":[{"name":"Тюменская область","weight":0.01},{"name":"Тюмень","weight":0.09}]},{"name":"Челябинская область","weight":0.07,"level2":[{"name":"Челябинская область","weight":0.03},{"name":"Челябинск","weight":0.04}]},{"name":"Ярославская область","weight":0.13,"level2":[{"name":"Ярославская область","weight":0.04},{"name":"Ярославль","weight":0.09}]}]},{"name":"Румыния","lat":45.8395,"lon":24.9856,"weight":0.04,"level1":null},{"name":"США","lat":39.4959,"lon":-98.99,"weight":1.05,"level1":[{"name":"США","weight":0.46,"level2":null},{"name":"Вашингтон","weight":0.06,"level2":null},{"name":"Гавайи","weight":0.04,"level2":null},{"name":"Калифорния","weight":0.12,"level2":[{"name":"Калифорния","weight":0.03},{"name":"Лос-Анджелес","weight":0.05},{"name":"Сан-Франциско","weight":0.04}]},{"name":"Марианские острова","weight":0.03,"level2":null},{"name":"Невада","weight":0.04,"level2":[{"name":"Лас-Вегас","weight":0.04}]},{"name":"Нью-Йорк","weight":0.22,"level2":null},{"name":"Флорида","weight":0.08,"level2":[{"name":"Флорида","weight":0.03},{"name":"Майами","weight":0.05}]}]},{"name":"Сейшельские Острова","lat":-4.678,"lon":55.4656,"weight":0.1,"level1":null},{"name":"Сербия","lat":44.0324,"lon":20.8068,"weight":0.04,"level1":[{"name":"Сербия","weight":0.01,"level2":null},{"name":"Белград","weight":0.03,"level2":null}]},{"name":"Сингапур","lat":1.2902,"lon":103.852,"weight":0.12,"level1":null},{"name":"Словакия","lat":48.7075,"lon":19.4849,"weight":0.07,"level1":null},{"name":"Словения","lat":46.1195,"lon":14.8217,"weight":0.11,"level1":null},{"name":"Таджикистан","lat":39.0422,"lon":70.8482,"weight":0.04,"level1":null},{"name":"Таиланд","lat":15.1305,"lon":101.0178,"weight":1.9,"level1":[{"name":"Таиланд","weight":0.58,"level2":null},{"name":"Бангкок","weight":0.06,"level2":null},{"name":"Краби","weight":0.13,"level2":null},{"name":"Паттайя","weight":0.38,"level2":null},{"name":"Пхукет","weight":0.64,"level2":null},{"name":"Самуй","weight":0.11,"level2":null}]},{"name":"Танзания","lat":-6.2966,"lon":34.8118,"weight":0.03,"level1":null},{"name":"Тунис","lat":34.1146,"lon":9.5718,"weight":0.52,"level1":[{"name":"Тунис","weight":0.27,"level2":null},{"name":"Монастир","weight":0.07,"level2":null},{"name":"Сус","weight":0.08,"level2":null},{"name":"Хаммамет","weight":0.1,"level2":null}]},{"name":"Турция","lat":39.9113,"lon":32.8509,"weight":14.48,"level1":[{"name":"Турция","weight":3.4,"level2":null},{"name":"Аланья","weight":2.11,"level2":[{"name":"Аланья","weight":2.07},{"name":"Конаклы","weight":0.04}]},{"name":"Анталья","weight":0.52,"level2":null},{"name":"Белек","weight":0.93,"level2":null},{"name":"Бодрум","weight":0.19,"level2":null},{"name":"Даламан","weight":0.06,"level2":null},{"name":"Кемер","weight":4.52,"level2":[{"name":"Кемер","weight":4.24},{"name":"Бельдиби","weight":0.09},{"name":"Гёйнюк","weight":0.08},{"name":"Кириш","weight":0.06},{"name":"Текирова","weight":0.05}]},{"name":"Кушадасы","weight":0.05,"level2":null},{"name":"Мармарис","weight":0.66,"level2":[{"name":"Мармарис","weight":0.58},{"name":"Ичмелер","weight":0.08}]},{"name":"Сиде","weight":1.55,"level2":null},{"name":"Стамбул","weight":0.41,"level2":null},{"name":"Фетхие","weight":0.08,"level2":null}]},{"name":"Узбекистан","lat":41.7651,"lon":63.1501,"weight":0.1,"level1":null},{"name":"Украина","lat":48.4636,"lon":31.686,"weight":0.37,"level1":[{"name":"Украина","weight":0.27,"level2":null},{"name":"Киев","weight":0.05,"level2":null},{"name":"Одесская область","weight":0.05,"level2":[{"name":"Одесская область","weight":0.01},{"name":"Одесса","weight":0.04}]}]},{"name":"Филиппины","lat":15.9482,"lon":121.4232,"weight":0.08,"level1":null},{"name":"Финляндия","lat":64.5199,"lon":26.283,"weight":0.35,"level1":[{"name":"Финляндия","weight":0.31,"level2":null},{"name":"Тампере","weight":0.04,"level2":null}]},{"name":"Франция","lat":46.6218,"lon":2.452,"weight":1.36,"level1":[{"name":"Франция","weight":0.65,"level2":null},{"name":"Марсель","weight":0.03,"level2":null},{"name":"Ницца","weight":0.06,"level2":null},{"name":"Париж","weight":0.62,"level2":null}]},{"name":"Хорватия","lat":45.1401,"lon":16.428,"weight":0.38,"level1":[{"name":"Хорватия","weight":0.29,"level2":null},{"name":"Дубровник","weight":0.09,"level2":null}]},{"name":"Черногория","lat":42.7848,"lon":19.2488,"weight":1.01,"level1":[{"name":"Черногория","weight":0.55,"level2":null},{"name":"Бечичи","weight":0.04,"level2":null},{"name":"Будва","weight":0.27,"level2":null},{"name":"Петровац","weight":0.11,"level2":null},{"name":"Тиват","weight":0.04,"level2":null}]},{"name":"Чехия","lat":49.7391,"lon":15.3315,"weight":1.37,"level1":[{"name":"Чехия","weight":0.57,"level2":null},{"name":"Карловы Вары","weight":0.06,"level2":null},{"name":"Прага","weight":0.74,"level2":null}]},{"name":"Чили","lat":-35.2967,"lon":-71.2281,"weight":0.04,"level1":null},{"name":"Швейцария","lat":46.8002,"lon":8.2292,"weight":0.14,"level1":null},{"name":"Швеция","lat":62.8218,"lon":16.7354,"weight":0.1,"level1":[{"name":"Швеция","weight":0.06,"level2":null},{"name":"Стокгольм","weight":0.04,"level2":null}]},{"name":"Шри-Ланка","lat":7.6416,"lon":80.692,"weight":0.22,"level1":[{"name":"Шри-Ланка","weight":0.19,"level2":null},{"name":"Негомбо","weight":0.03,"level2":null}]},{"name":"Эстония","lat":58.6837,"lon":25.8387,"weight":0.11,"level1":[{"name":"Эстония","weight":0.04,"level2":null},{"name":"Таллинн","weight":0.07,"level2":null}]},{"name":"ЮАР","lat":-29.0021,"lon":25.0804,"weight":0.04,"level1":null},{"name":"Ямайка","lat":18.1578,"lon":-77.3112,"weight":0.04,"level1":null},{"name":"Япония","lat":36.6536,"lon":137.9813,"weight":0.12,"level1":null}]},{"reg":"Воронеж","regions":[{"name":"Абхазия","lat":42.9892,"lon":40.9835,"weight":4.17,"level1":[{"name":"Абхазия","weight":1.22,"level2":null},{"name":"Гагра","weight":0.98,"level2":null},{"name":"Гудаута","weight":0.11,"level2":null},{"name":"Новый Афон","weight":0.22,"level2":null},{"name":"Пицунда","weight":1.38,"level2":null},{"name":"Сухум","weight":0.19,"level2":null},{"name":"Цандрипш","weight":0.07,"level2":null}]},{"name":"Австралия","lat":-25.5788,"lon":134.3596,"weight":0.16,"level1":[{"name":"Австралия","weight":0.13,"level2":null},{"name":"Мельбурн","weight":0.03,"level2":null}]},{"name":"Австрия","lat":47.5871,"lon":14.1413,"weight":0.37,"level1":[{"name":"Австрия","weight":0.16,"level2":null},{"name":"Вена","weight":0.17,"level2":null},{"name":"Тироль","weight":0.04,"level2":null}]},{"name":"Азербайджан","lat":40.36,"lon":47.6515,"weight":0.13,"level1":[{"name":"Азербайджан","weight":0.1,"level2":null},{"name":"Баку","weight":0.03,"level2":null}]},{"name":"Армения","lat":40.2927,"lon":44.9395,"weight":0.12,"level1":[{"name":"Армения","weight":0.07,"level2":null},{"name":"Ереван","weight":0.05,"level2":null}]},{"name":"Беларусь","lat":53.5312,"lon":28.031,"weight":0.65,"level1":[{"name":"Беларусь","weight":0.28,"level2":null},{"name":"Брестская область","weight":0.04,"level2":[{"name":"Брестская область","weight":0.01},{"name":"Брест","weight":0.03}]},{"name":"Гомельская область","weight":0.04,"level2":[{"name":"Гомельская область","weight":0.01},{"name":"Гомель","weight":0.03}]},{"name":"Гродненская область","weight":0.04,"level2":null},{"name":"Минская область","weight":0.25,"level2":[{"name":"Минская область","weight":0.13},{"name":"Минск","weight":0.12}]}]},{"name":"Бельгия","lat":50.6412,"lon":4.6606,"weight":0.07,"level1":null},{"name":"Болгария","lat":42.7574,"lon":25.2387,"weight":1.47,"level1":[{"name":"Болгария","weight":1.31,"level2":null},{"name":"Золотые Пески","weight":0.13,"level2":null},{"name":"София","weight":0.03,"level2":null}]},{"name":"Босния и Герцеговина","lat":44.168,"lon":17.7879,"weight":0.03,"level1":null},{"name":"Бразилия","lat":-10.7765,"lon":-53.069,"weight":0.08,"level1":null},{"name":"Великобритания","lat":53.9446,"lon":-2.5507,"weight":0.43,"level1":[{"name":"Великобритания","weight":0.15,"level2":null},{"name":"Англия","weight":0.2,"level2":[{"name":"Англия","weight":0.03},{"name":"Лондон","weight":0.17}]},{"name":"Шотландия","weight":0.08,"level2":null}]},{"name":"Венгрия","lat":47.1652,"lon":19.4123,"weight":0.37,"level1":[{"name":"Венгрия","weight":0.13,"level2":null},{"name":"Будапешт","weight":0.24,"level2":null}]},{"name":"Вьетнам","lat":15.377,"lon":109.1423,"weight":0.82,"level1":[{"name":"Вьетнам","weight":0.31,"level2":null},{"name":"Нячанг","weight":0.39,"level2":null},{"name":"Фантхьет","weight":0.09,"level2":null},{"name":"Ханой","weight":0.03,"level2":null}]},{"name":"Германия","lat":51.1215,"lon":10.4008,"weight":1.09,"level1":[{"name":"Германия","weight":0.53,"level2":null},{"name":"Бавария","weight":0.17,"level2":[{"name":"Бавария","weight":0.03},{"name":"Мюнхен","weight":0.14}]},{"name":"Баден-Баден","weight":0.09,"level2":null},{"name":"Берлин","weight":0.22,"level2":null},{"name":"Дрезден","weight":0.03,"level2":null},{"name":"Дюссельдорф","weight":0.05,"level2":null}]},{"name":"Греция","lat":39.3475,"lon":22.5714,"weight":4.39,"level1":[{"name":"Греция","weight":0.86,"level2":null},{"name":"Афины","weight":0.04,"level2":null},{"name":"Ионические острова","weight":0.2,"level2":[{"name":"Закинф","weight":0.03},{"name":"Корфу","weight":0.17}]},{"name":"Кос","weight":0.08,"level2":null},{"name":"Крит","weight":2.16,"level2":null},{"name":"Пиерия","weight":0.07,"level2":[{"name":"Катерини","weight":0.07}]},{"name":"Родос","weight":0.42,"level2":null},{"name":"Салоники","weight":0.09,"level2":null},{"name":"Санторини","weight":0.08,"level2":null},{"name":"Халкидики","weight":0.39,"level2":[{"name":"Халкидики","weight":0.35},{"name":"Афон","weight":0.04}]}]},{"name":"Грузия","lat":41.6648,"lon":43.9044,"weight":0.22,"level1":[{"name":"Грузия","weight":0.17,"level2":null},{"name":"Тбилиси","weight":0.05,"level2":null}]},{"name":"Дания","lat":56.2623,"lon":9.3364,"weight":0.12,"level1":[{"name":"Дания","weight":0.07,"level2":null},{"name":"Копенгаген","weight":0.05,"level2":null}]},{"name":"Доминиканская Республика","lat":18.8973,"lon":-70.5,"weight":0.33,"level1":[{"name":"Доминиканская Республика","weight":0.19,"level2":null},{"name":"Пунта-Кана","weight":0.14,"level2":null}]},{"name":"Египет","lat":26.5054,"lon":29.8761,"weight":10.62,"level1":[{"name":"Египет","weight":1.83,"level2":null},{"name":"Каир","weight":0.03,"level2":null},{"name":"Макади-Бэй","weight":0.91,"level2":null},{"name":"Марса-Алам","weight":0.22,"level2":null},{"name":"Сафага","weight":0.33,"level2":null},{"name":"Сахль-Хашиш","weight":0.18,"level2":null},{"name":"Сома-бэй","weight":0.2,"level2":null},{"name":"Таба","weight":0.05,"level2":null},{"name":"Хургада","weight":2.98,"level2":null},{"name":"Шарм-эль-Шейх","weight":3.86,"level2":null},{"name":"Эль-Гуна","weight":0.03,"level2":null}]},{"name":"Израиль","lat":31.552,"lon":35.0611,"weight":0.41,"level1":[{"name":"Израиль","weight":0.16,"level2":null},{"name":"Иерусалим","weight":0.08,"level2":null},{"name":"Нетания","weight":0.04,"level2":null},{"name":"Тель-Авив","weight":0.06,"level2":null},{"name":"Эйлат","weight":0.07,"level2":null}]},{"name":"Индия","lat":22.4844,"lon":79.7141,"weight":0.45,"level1":[{"name":"Индия","weight":0.29,"level2":null},{"name":"Гоа","weight":0.16,"level2":null}]},{"name":"Индонезия","lat":-0.2094,"lon":114.0046,"weight":0.21,"level1":[{"name":"Индонезия","weight":0.06,"level2":null},{"name":"Бали","weight":0.15,"level2":null}]},{"name":"Ирландия","lat":53.1851,"lon":-8.1468,"weight":0.05,"level1":null},{"name":"Исландия","lat":64.9836,"lon":-18.5771,"weight":0.05,"level1":null},{"name":"Испания","lat":40.3877,"lon":-3.5574,"weight":3.09,"level1":[{"name":"Испания","weight":0.94,"level2":null},{"name":"Андалусия","weight":0.03,"level2":null},{"name":"Балеарские острова","weight":0.48,"level2":[{"name":"Балеарские острова","weight":0.05},{"name":"Майорка","weight":0.43}]},{"name":"Барселона","weight":0.33,"level2":null},{"name":"Канарские острова","weight":0.37,"level2":[{"name":"Канарские острова","weight":0.06},{"name":"Тенерифе","weight":0.31}]},{"name":"Коста-Бланка","weight":0.08,"level2":null},{"name":"Коста-Брава","weight":0.13,"level2":[{"name":"Коста-Брава","weight":0.04},{"name":"Льорет-де-Мар","weight":0.09}]},{"name":"Коста-Дорада","weight":0.52,"level2":[{"name":"Коста-Дорада","weight":0.43},{"name":"Салоу","weight":0.05},{"name":"Таррагона","weight":0.04}]},{"name":"Коста-дель-Маресме","weight":0.11,"level2":null},{"name":"Мадрид","weight":0.1,"level2":null}]},{"name":"Италия","lat":43.5292,"lon":12.162,"weight":2.53,"level1":[{"name":"Италия","weight":0.84,"level2":null},{"name":"Венето","weight":0.2,"level2":[{"name":"Венето","weight":0.05},{"name":"Венеция","weight":0.15}]},{"name":"Кампания","weight":0.06,"level2":[{"name":"Кампания","weight":0.01},{"name":"Неаполь","weight":0.05}]},{"name":"Лигурия","weight":0.08,"level2":null},{"name":"Ломбардия","weight":0.16,"level2":[{"name":"Милан","weight":0.16}]},{"name":"Рим","weight":0.25,"level2":null},{"name":"Сардиния","weight":0.03,"level2":null},{"name":"Сицилия","weight":0.38,"level2":[{"name":"Сицилия","weight":0.34},{"name":"Палермо","weight":0.04}]},{"name":"Тоскана","weight":0.12,"level2":[{"name":"Тоскана","weight":0.06},{"name":"Флоренция","weight":0.06}]},{"name":"Эмилия-Романья","weight":0.41,"level2":[{"name":"Эмилия-Романья","weight":0.25},{"name":"Римини","weight":0.16}]}]},{"name":"Казахстан","lat":48.1362,"lon":67.1535,"weight":0.1,"level1":null},{"name":"Камбоджа","lat":12.7109,"lon":104.9169,"weight":0.05,"level1":null},{"name":"Канада","lat":62.5367,"lon":-96.3924,"weight":0.06,"level1":null},{"name":"Кипр","lat":35.2804,"lon":33.6017,"weight":1.56,"level1":[{"name":"Кипр","weight":0.64,"level2":null},{"name":"Айя-Напа","weight":0.37,"level2":null},{"name":"Ларнака","weight":0.07,"level2":null},{"name":"Лимасол","weight":0.14,"level2":null},{"name":"Пафос","weight":0.2,"level2":null},{"name":"Протарас","weight":0.14,"level2":null}]},{"name":"Киргизия","lat":41.4644,"lon":74.5552,"weight":0.04,"level1":null},{"name":"Китай","lat":36.6254,"lon":103.9034,"weight":0.66,"level1":[{"name":"Китай","weight":0.33,"level2":null},{"name":"Гонконг","weight":0.11,"level2":null},{"name":"Гуанчжоу","weight":0.05,"level2":null},{"name":"Пекин","weight":0.1,"level2":null},{"name":"Хайнань","weight":0.07,"level2":null}]},{"name":"Корея","lat":36.4512,"lon":127.8611,"weight":0.1,"level1":[{"name":"Корея","weight":0.06,"level2":null},{"name":"Сеул","weight":0.04,"level2":null}]},{"name":"Куба","lat":21.6105,"lon":-78.9603,"weight":0.55,"level1":[{"name":"Куба","weight":0.49,"level2":null},{"name":"Варадеро","weight":0.06,"level2":null}]},{"name":"Латвия","lat":56.8539,"lon":24.9276,"weight":0.1,"level1":[{"name":"Латвия","weight":0.05,"level2":null},{"name":"Рига","weight":0.05,"level2":null}]},{"name":"Литва","lat":55.3373,"lon":23.8836,"weight":0.06,"level1":null},{"name":"Маврикий","lat":-20.2858,"lon":57.568,"weight":0.07,"level1":null},{"name":"Малайзия","lat":3.6061,"lon":114.7126,"weight":0.08,"level1":null},{"name":"Мальдивы","lat":1.9123,"lon":73.5401,"weight":0.51,"level1":[{"name":"Мальдивы","weight":0.42,"level2":null},{"name":"Мале","weight":0.09,"level2":null}]},{"name":"Мальта","lat":35.8906,"lon":14.4395,"weight":0.12,"level1":null},{"name":"Марокко","lat":29.13,"lon":-8.8709,"weight":0.28,"level1":[{"name":"Марокко","weight":0.19,"level2":null},{"name":"Агадир","weight":0.09,"level2":null}]},{"name":"Мексика","lat":23.9405,"lon":-102.5263,"weight":0.19,"level1":[{"name":"Мексика","weight":0.15,"level2":null},{"name":"Канкун","weight":0.04,"level2":null}]},{"name":"Молдавия","lat":47.2024,"lon":28.4661,"weight":0.04,"level1":null},{"name":"Нидерланды","lat":52.2458,"lon":5.5652,"weight":0.21,"level1":[{"name":"Нидерланды","weight":0.11,"level2":null},{"name":"Амстердам","weight":0.1,"level2":null}]},{"name":"Новая Зеландия","lat":-43.9482,"lon":170.5025,"weight":0.03,"level1":null},{"name":"Норвегия","lat":64.239,"lon":13.9506,"weight":0.1,"level1":null},{"name":"ОАЭ","lat":23.9073,"lon":54.3341,"weight":1.2,"level1":[{"name":"ОАЭ","weight":0.43,"level2":null},{"name":"Абу-Даби","weight":0.09,"level2":null},{"name":"Дубай","weight":0.55,"level2":null},{"name":"Рас-эль-Хайма","weight":0.06,"level2":null},{"name":"Шарджа","weight":0.07,"level2":null}]},{"name":"Польша","lat":52.129,"lon":19.3937,"weight":0.2,"level1":[{"name":"Польша","weight":0.13,"level2":null},{"name":"Варшава","weight":0.03,"level2":null},{"name":"Краков","weight":0.04,"level2":null}]},{"name":"Португалия","lat":39.68,"lon":-7.9687,"weight":2.69,"level1":[{"name":"Португалия","weight":0.38,"level2":null},{"name":"Албуфейра","weight":0.15,"level2":null},{"name":"Алгарве","weight":0.21,"level2":null},{"name":"Лиссабон","weight":1.95,"level2":null}]},{"name":"Россия","lat":61.6987,"lon":99.5054,"weight":34.87,"level1":[{"name":"Россия","weight":2.28,"level2":null},{"name":"Адыгея","weight":0.04,"level2":null},{"name":"Республика Алтай","weight":0.05,"level2":null},{"name":"Архангельская область","weight":0.04,"level2":null},{"name":"Астраханская область","weight":0.04,"level2":[{"name":"Астрахань","weight":0.04}]},{"name":"Байкал","weight":0.11,"level2":null},{"name":"Башкортостан","weight":0.05,"level2":[{"name":"Башкортостан","weight":0.01},{"name":"Уфа","weight":0.04}]},{"name":"Белгородская область","weight":0.3,"level2":[{"name":"Белгородская область","weight":0.05},{"name":"Белгород","weight":0.19},{"name":"Старый Оскол","weight":0.06}]},{"name":"Брянская область","weight":0.05,"level2":[{"name":"Брянская область","weight":0.01},{"name":"Брянск","weight":0.04}]},{"name":"Владимирская область","weight":0.21,"level2":[{"name":"Владимирская область","weight":0.03},{"name":"Владимир","weight":0.06},{"name":"Муром","weight":0.04},{"name":"Суздаль","weight":0.08}]},{"name":"Волгоградская область","weight":0.41,"level2":[{"name":"Волгоградская область","weight":0.03},{"name":"Волгоград","weight":0.38}]},{"name":"Вологодская область","weight":0.06,"level2":null},{"name":"Воронежская область","weight":1.96,"level2":[{"name":"Воронежская область","weight":1.28},{"name":"Борисоглебск","weight":0.68}]},{"name":"Ивановская область","weight":0.13,"level2":[{"name":"Ивановская область","weight":0.09},{"name":"Иваново","weight":0.04}]},{"name":"Кабардино-Балкария","weight":0.07,"level2":[{"name":"Кабардино-Балкария","weight":0.04},{"name":"Нальчик","weight":0.03}]},{"name":"Калининградская область","weight":0.23,"level2":[{"name":"Калининградская область","weight":0.03},{"name":"Калининград","weight":0.11},{"name":"Светлогорск","weight":0.09}]},{"name":"Калужская область","weight":0.05,"level2":null},{"name":"Карачаево-Черкесия","weight":0.07,"level2":[{"name":"Карачаево-Черкесия","weight":0.03},{"name":"Домбай","weight":0.04}]},{"name":"Карелия","weight":0.16,"level2":[{"name":"Карелия","weight":0.13},{"name":"Петрозаводск","weight":0.03}]},{"name":"Кемеровская область","weight":0.08,"level2":null},{"name":"Костромская область","weight":0.05,"level2":[{"name":"Кострома","weight":0.05}]},{"name":"Краснодарский край","weight":15.5,"level2":[{"name":"Краснодарский край","weight":0.25},{"name":"Анапа","weight":3.36},{"name":"Геленджик","weight":3.75},{"name":"Должанская","weight":0.09},{"name":"Ейск","weight":0.33},{"name":"Краснодар","weight":0.05},{"name":"Новороссийск","weight":0.14},{"name":"Сочи","weight":6.3},{"name":"Темрюкский район","weight":0.22},{"name":"Туапсе","weight":1.01}]},{"name":"Крым","weight":5.8,"level2":[{"name":"Крым","weight":2.22},{"name":"Алушта","weight":0.45},{"name":"Евпатория","weight":0.3},{"name":"Керчь","weight":0.04},{"name":"Коктебель","weight":0.2},{"name":"Кореиз","weight":0.05},{"name":"Саки","weight":0.31},{"name":"Севастополь","weight":0.23},{"name":"Симферополь","weight":0.09},{"name":"Судак","weight":0.34},{"name":"Феодосия","weight":0.36},{"name":"Ялта","weight":1.21}]},{"name":"Курская область","weight":0.1,"level2":[{"name":"Курская область","weight":0.03},{"name":"Курск","weight":0.07}]},{"name":"Ленинградская область","weight":0.15,"level2":null},{"name":"Липецкая область","weight":0.25,"level2":[{"name":"Липецкая область","weight":0.11},{"name":"Липецк","weight":0.14}]},{"name":"Москва","weight":1.65,"level2":null},{"name":"Московская область","weight":0.52,"level2":[{"name":"Московская область","weight":0.38},{"name":"Красногорск","weight":0.05},{"name":"Сергиев Посад","weight":0.09}]},{"name":"Мурманская область","weight":0.03,"level2":null},{"name":"Нижегородская область","weight":0.15,"level2":[{"name":"Нижегородская область","weight":0.03},{"name":"Нижний Новгород","weight":0.12}]},{"name":"Новгородская область","weight":0.04,"level2":null},{"name":"Новосибирская область","weight":0.03,"level2":[{"name":"Новосибирск","weight":0.03}]},{"name":"Пермский край","weight":0.04,"level2":[{"name":"Пермский край","weight":0.01},{"name":"Пермь","weight":0.03}]},{"name":"Приморский край","weight":0.05,"level2":null},{"name":"Псковская область","weight":0.03,"level2":null},{"name":"Ростовская область","weight":0.17,"level2":[{"name":"Ростовская область","weight":0.05},{"name":"Ростов-на-Дону","weight":0.12}]},{"name":"Рязанская область","weight":0.05,"level2":[{"name":"Рязанская область","weight":0.01},{"name":"Рязань","weight":0.04}]},{"name":"Самарская область","weight":0.05,"level2":[{"name":"Самарская область","weight":0.02},{"name":"Самара","weight":0.03}]},{"name":"Санкт-Петербург","weight":1.83,"level2":null},{"name":"Саратовская область","weight":0.06,"level2":[{"name":"Саратовская область","weight":0.01},{"name":"Саратов","weight":0.05}]},{"name":"Свердловская область","weight":0.16,"level2":[{"name":"Свердловская область","weight":0.01},{"name":"Екатеринбург","weight":0.15}]},{"name":"Смоленская область","weight":0.04,"level2":[{"name":"Смоленск","weight":0.04}]},{"name":"Ставропольский край","weight":0.82,"level2":[{"name":"Ставропольский край","weight":0.02},{"name":"Ессентуки","weight":0.17},{"name":"Железноводск","weight":0.09},{"name":"Кисловодск","weight":0.36},{"name":"Пятигорск","weight":0.18}]},{"name":"Тамбовская область","weight":0.13,"level2":[{"name":"Тамбовская область","weight":0.05},{"name":"Тамбов","weight":0.08}]},{"name":"Татарстан","weight":0.27,"level2":[{"name":"Казань","weight":0.27}]},{"name":"Тверская область","weight":0.09,"level2":[{"name":"Тверская область","weight":0.05},{"name":"Тверь","weight":0.04}]},{"name":"Тульская область","weight":0.13,"level2":[{"name":"Тульская область","weight":0.04},{"name":"Тула","weight":0.09}]},{"name":"Тюменская область","weight":0.1,"level2":[{"name":"Тюменская область","weight":0.02},{"name":"Тюмень","weight":0.08}]},{"name":"Ярославская область","weight":0.19,"level2":[{"name":"Ярославская область","weight":0.09},{"name":"Ярославль","weight":0.1}]}]},{"name":"Румыния","lat":45.8395,"lon":24.9856,"weight":0.05,"level1":null},{"name":"США","lat":39.4959,"lon":-98.99,"weight":0.75,"level1":[{"name":"США","weight":0.51,"level2":null},{"name":"Калифорния","weight":0.07,"level2":null},{"name":"Нью-Йорк","weight":0.12,"level2":null},{"name":"Флорида","weight":0.05,"level2":[{"name":"Флорида","weight":0.01},{"name":"Майами","weight":0.04}]}]},{"name":"Сейшельские Острова","lat":-4.678,"lon":55.4656,"weight":0.08,"level1":null},{"name":"Сербия","lat":44.0324,"lon":20.8068,"weight":0.03,"level1":null},{"name":"Сингапур","lat":1.2902,"lon":103.852,"weight":0.1,"level1":null},{"name":"Словакия","lat":48.7075,"lon":19.4849,"weight":0.04,"level1":null},{"name":"Словения","lat":46.1195,"lon":14.8217,"weight":0.06,"level1":null},{"name":"Таиланд","lat":15.1305,"lon":101.0178,"weight":2.08,"level1":[{"name":"Таиланд","weight":0.58,"level2":null},{"name":"Бангкок","weight":0.06,"level2":null},{"name":"Краби","weight":0.4,"level2":null},{"name":"Паттайя","weight":0.32,"level2":null},{"name":"Пхукет","weight":0.61,"level2":null},{"name":"Самуй","weight":0.11,"level2":null}]},{"name":"Тунис","lat":34.1146,"lon":9.5718,"weight":0.37,"level1":[{"name":"Тунис","weight":0.17,"level2":null},{"name":"Сус","weight":0.07,"level2":null},{"name":"Хаммамет","weight":0.13,"level2":null}]},{"name":"Турция","lat":39.9113,"lon":32.8509,"weight":14.35,"level1":[{"name":"Турция","weight":2.43,"level2":null},{"name":"Аланья","weight":3.18,"level2":[{"name":"Аланья","weight":3.1},{"name":"Конаклы","weight":0.08}]},{"name":"Анталья","weight":0.44,"level2":null},{"name":"Белек","weight":0.75,"level2":null},{"name":"Бодрум","weight":0.16,"level2":null},{"name":"Дидим","weight":0.06,"level2":null},{"name":"Измир","weight":0.04,"level2":null},{"name":"Кемер","weight":4.89,"level2":[{"name":"Кемер","weight":4.71},{"name":"Бельдиби","weight":0.09},{"name":"Гёйнюк","weight":0.06},{"name":"Текирова","weight":0.03}]},{"name":"Кушадасы","weight":0.12,"level2":null},{"name":"Мармарис","weight":0.39,"level2":null},{"name":"Сиде","weight":1.54,"level2":null},{"name":"Стамбул","weight":0.22,"level2":null},{"name":"Фетхие","weight":0.13,"level2":null}]},{"name":"Узбекистан","lat":41.7651,"lon":63.1501,"weight":0.06,"level1":null},{"name":"Украина","lat":48.4636,"lon":31.686,"weight":0.45,"level1":[{"name":"Украина","weight":0.31,"level2":null},{"name":"Запорожская область","weight":0.06,"level2":null},{"name":"Киев","weight":0.04,"level2":null},{"name":"Одесская область","weight":0.04,"level2":[{"name":"Одесская область","weight":0.01},{"name":"Одесса","weight":0.03}]}]},{"name":"Филиппины","lat":15.9482,"lon":121.4232,"weight":0.17,"level1":[{"name":"Филиппины","weight":0.14,"level2":null},{"name":"Боракай","weight":0.03,"level2":null}]},{"name":"Финляндия","lat":64.5199,"lon":26.283,"weight":0.31,"level1":[{"name":"Финляндия","weight":0.22,"level2":null},{"name":"Хельсинки","weight":0.09,"level2":null}]},{"name":"Франция","lat":46.6218,"lon":2.452,"weight":1.03,"level1":[{"name":"Франция","weight":0.56,"level2":null},{"name":"Ницца","weight":0.04,"level2":null},{"name":"Париж","weight":0.43,"level2":null}]},{"name":"Хорватия","lat":45.1401,"lon":16.428,"weight":0.32,"level1":null},{"name":"Черногория","lat":42.7848,"lon":19.2488,"weight":0.59,"level1":[{"name":"Черногория","weight":0.43,"level2":null},{"name":"Будва","weight":0.16,"level2":null}]},{"name":"Чехия","lat":49.7391,"lon":15.3315,"weight":1.16,"level1":[{"name":"Чехия","weight":0.36,"level2":null},{"name":"Карловы Вары","weight":0.03,"level2":null},{"name":"Прага","weight":0.77,"level2":null}]},{"name":"Чили","lat":-35.2967,"lon":-71.2281,"weight":0.03,"level1":null},{"name":"Швейцария","lat":46.8002,"lon":8.2292,"weight":0.23,"level1":[{"name":"Швейцария","weight":0.19,"level2":null},{"name":"Цюрих","weight":0.04,"level2":null}]},{"name":"Швеция","lat":62.8218,"lon":16.7354,"weight":0.15,"level1":[{"name":"Швеция","weight":0.1,"level2":null},{"name":"Стокгольм","weight":0.05,"level2":null}]},{"name":"Шри-Ланка","lat":7.6416,"lon":80.692,"weight":0.28,"level1":null},{"name":"Эстония","lat":58.6837,"lon":25.8387,"weight":0.12,"level1":[{"name":"Эстония","weight":0.06,"level2":null},{"name":"Таллинн","weight":0.06,"level2":null}]},{"name":"Ямайка","lat":18.1578,"lon":-77.3112,"weight":0.06,"level1":null},{"name":"Япония","lat":36.6536,"lon":137.9813,"weight":0.14,"level1":[{"name":"Япония","weight":0.1,"level2":null},{"name":"Токио","weight":0.04,"level2":null}]}]},{"reg":"Екатеринбург","regions":[{"name":"Абхазия","lat":42.9892,"lon":40.9835,"weight":1.93,"level1":[{"name":"Абхазия","weight":0.93,"level2":null},{"name":"Гагра","weight":0.5,"level2":null},{"name":"Гудаута","weight":0.05,"level2":null},{"name":"Новый Афон","weight":0.05,"level2":null},{"name":"Пицунда","weight":0.28,"level2":null},{"name":"Сухум","weight":0.08,"level2":null},{"name":"Цандрипш","weight":0.04,"level2":null}]},{"name":"Австралия","lat":-25.5788,"lon":134.3596,"weight":0.06,"level1":null},{"name":"Австрия","lat":47.5871,"lon":14.1413,"weight":0.31,"level1":[{"name":"Австрия","weight":0.14,"level2":null},{"name":"Вена","weight":0.17,"level2":null}]},{"name":"Азербайджан","lat":40.36,"lon":47.6515,"weight":0.09,"level1":[{"name":"Азербайджан","weight":0.04,"level2":null},{"name":"Баку","weight":0.05,"level2":null}]},{"name":"Андорра","lat":42.5453,"lon":1.5763,"weight":0.05,"level1":null},{"name":"Аргентина","lat":-35.1949,"lon":-65.102,"weight":0.04,"level1":null},{"name":"Армения","lat":40.2927,"lon":44.9395,"weight":0.15,"level1":[{"name":"Армения","weight":0.1,"level2":null},{"name":"Ереван","weight":0.05,"level2":null}]},{"name":"Беларусь","lat":53.5312,"lon":28.031,"weight":0.27,"level1":[{"name":"Беларусь","weight":0.15,"level2":null},{"name":"Минская область","weight":0.12,"level2":[{"name":"Минская область","weight":0.03},{"name":"Минск","weight":0.09}]}]},{"name":"Бельгия","lat":50.6412,"lon":4.6606,"weight":0.08,"level1":null},{"name":"Болгария","lat":42.7574,"lon":25.2387,"weight":1.39,"level1":[{"name":"Болгария","weight":1.14,"level2":null},{"name":"Бургас","weight":0.09,"level2":null},{"name":"Золотые Пески","weight":0.09,"level2":null},{"name":"Несебыр","weight":0.03,"level2":null},{"name":"Созополь","weight":0.04,"level2":null}]},{"name":"Бразилия","lat":-10.7765,"lon":-53.069,"weight":0.16,"level1":[{"name":"Бразилия","weight":0.12,"level2":null},{"name":"Рио-де-Жанейро","weight":0.04,"level2":null}]},{"name":"Великобритания","lat":53.9446,"lon":-2.5507,"weight":0.43,"level1":[{"name":"Великобритания","weight":0.18,"level2":null},{"name":"Англия","weight":0.25,"level2":[{"name":"Англия","weight":0.04},{"name":"Лондон","weight":0.21}]}]},{"name":"Венгрия","lat":47.1652,"lon":19.4123,"weight":0.24,"level1":[{"name":"Венгрия","weight":0.09,"level2":null},{"name":"Будапешт","weight":0.15,"level2":null}]},{"name":"Вьетнам","lat":15.377,"lon":109.1423,"weight":4.15,"level1":[{"name":"Вьетнам","weight":0.42,"level2":null},{"name":"Нячанг","weight":1.05,"level2":null},{"name":"Фантхьет","weight":2.68,"level2":null}]},{"name":"Германия","lat":51.1215,"lon":10.4008,"weight":0.8,"level1":[{"name":"Германия","weight":0.4,"level2":null},{"name":"Бавария","weight":0.11,"level2":[{"name":"Бавария","weight":0.02},{"name":"Мюнхен","weight":0.09}]},{"name":"Баден-Баден","weight":0.04,"level2":null},{"name":"Берлин","weight":0.2,"level2":null},{"name":"Дрезден","weight":0.05,"level2":null}]},{"name":"Греция","lat":39.3475,"lon":22.5714,"weight":4.83,"level1":[{"name":"Греция","weight":0.84,"level2":null},{"name":"Афины","weight":0.05,"level2":null},{"name":"Ионические острова","weight":0.21,"level2":[{"name":"Ионические острова","weight":0.01},{"name":"Закинф","weight":0.05},{"name":"Корфу","weight":0.15}]},{"name":"Кос","weight":0.06,"level2":null},{"name":"Крит","weight":2.16,"level2":null},{"name":"Родос","weight":1.07,"level2":null},{"name":"Салоники","weight":0.04,"level2":null},{"name":"Санторини","weight":0.04,"level2":null},{"name":"Халкидики","weight":0.36,"level2":null}]},{"name":"Грузия","lat":41.6648,"lon":43.9044,"weight":0.21,"level1":[{"name":"Грузия","weight":0.11,"level2":null},{"name":"Тбилиси","weight":0.1,"level2":null}]},{"name":"Дания","lat":56.2623,"lon":9.3364,"weight":0.05,"level1":null},{"name":"Доминиканская Республика","lat":18.8973,"lon":-70.5,"weight":0.38,"level1":[{"name":"Доминиканская Республика","weight":0.24,"level2":null},{"name":"Пунта-Кана","weight":0.14,"level2":null}]},{"name":"Египет","lat":26.5054,"lon":29.8761,"weight":11.25,"level1":[{"name":"Египет","weight":1.36,"level2":null},{"name":"Дахаб","weight":0.05,"level2":null},{"name":"Макади-Бэй","weight":0.56,"level2":null},{"name":"Марса-Алам","weight":0.1,"level2":null},{"name":"Сафага","weight":0.17,"level2":null},{"name":"Сахль-Хашиш","weight":0.13,"level2":null},{"name":"Сома-бэй","weight":0.12,"level2":null},{"name":"Таба","weight":0.09,"level2":null},{"name":"Хургада","weight":4.11,"level2":null},{"name":"Шарм-эль-Шейх","weight":4.52,"level2":null},{"name":"Эль-Гуна","weight":0.04,"level2":null}]},{"name":"Израиль","lat":31.552,"lon":35.0611,"weight":0.39,"level1":[{"name":"Израиль","weight":0.21,"level2":null},{"name":"Иерусалим","weight":0.04,"level2":null},{"name":"Нетания","weight":0.04,"level2":null},{"name":"Тель-Авив","weight":0.05,"level2":null},{"name":"Эйлат","weight":0.05,"level2":null}]},{"name":"Индия","lat":22.4844,"lon":79.7141,"weight":0.84,"level1":[{"name":"Индия","weight":0.25,"level2":null},{"name":"Гоа","weight":0.59,"level2":null}]},{"name":"Индонезия","lat":-0.2094,"lon":114.0046,"weight":0.21,"level1":[{"name":"Индонезия","weight":0.09,"level2":null},{"name":"Бали","weight":0.12,"level2":null}]},{"name":"Ирландия","lat":53.1851,"lon":-8.1468,"weight":0.07,"level1":null},{"name":"Исландия","lat":64.9836,"lon":-18.5771,"weight":0.03,"level1":null},{"name":"Испания","lat":40.3877,"lon":-3.5574,"weight":3.1,"level1":[{"name":"Испания","weight":1.24,"level2":null},{"name":"Балеарские острова","weight":0.28,"level2":[{"name":"Балеарские острова","weight":0.02},{"name":"Майорка","weight":0.26}]},{"name":"Барселона","weight":0.42,"level2":null},{"name":"Канарские острова","weight":0.23,"level2":[{"name":"Канарские острова","weight":0.04},{"name":"Тенерифе","weight":0.19}]},{"name":"Коста-Бланка","weight":0.06,"level2":null},{"name":"Коста-Брава","weight":0.09,"level2":[{"name":"Коста-Брава","weight":0.05},{"name":"Льорет-де-Мар","weight":0.04}]},{"name":"Коста-Дорада","weight":0.4,"level2":[{"name":"Коста-Дорада","weight":0.35},{"name":"Салоу","weight":0.05}]},{"name":"Коста-дель-Маресме","weight":0.23,"level2":null},{"name":"Коста-дель-Соль","weight":0.09,"level2":[{"name":"Коста-дель-Соль","weight":0.01},{"name":"Малага","weight":0.03},{"name":"Торремолинос","weight":0.05}]},{"name":"Мадрид","weight":0.06,"level2":null}]},{"name":"Италия","lat":43.5292,"lon":12.162,"weight":1.95,"level1":[{"name":"Италия","weight":0.68,"level2":null},{"name":"Венето","weight":0.14,"level2":[{"name":"Венето","weight":0.04},{"name":"Венеция","weight":0.1}]},{"name":"Кампания","weight":0.06,"level2":[{"name":"Кампания","weight":0.02},{"name":"Неаполь","weight":0.04}]},{"name":"Лацио","weight":0.04,"level2":null},{"name":"Лигурия","weight":0.05,"level2":null},{"name":"Ломбардия","weight":0.13,"level2":[{"name":"Ломбардия","weight":0.01},{"name":"Милан","weight":0.12}]},{"name":"Рим","weight":0.23,"level2":null},{"name":"Сардиния","weight":0.04,"level2":null},{"name":"Сицилия","weight":0.08,"level2":null},{"name":"Тоскана","weight":0.11,"level2":[{"name":"Тоскана","weight":0.03},{"name":"Флоренция","weight":0.08}]},{"name":"Эмилия-Романья","weight":0.39,"level2":[{"name":"Эмилия-Романья","weight":0.31},{"name":"Римини","weight":0.08}]}]},{"name":"Казахстан","lat":48.1362,"lon":67.1535,"weight":0.25,"level1":[{"name":"Казахстан","weight":0.13,"level2":null},{"name":"Алматы","weight":0.05,"level2":null},{"name":"Астана","weight":0.07,"level2":null}]},{"name":"Камбоджа","lat":12.7109,"lon":104.9169,"weight":0.05,"level1":null},{"name":"Канада","lat":62.5367,"lon":-96.3924,"weight":0.07,"level1":null},{"name":"Кипр","lat":35.2804,"lon":33.6017,"weight":3.24,"level1":[{"name":"Кипр","weight":0.79,"level2":null},{"name":"Айя-Напа","weight":0.71,"level2":null},{"name":"Ларнака","weight":0.12,"level2":null},{"name":"Лимасол","weight":0.25,"level2":null},{"name":"Пафос","weight":0.65,"level2":null},{"name":"Писсури","weight":0.03,"level2":null},{"name":"Протарас","weight":0.69,"level2":null}]},{"name":"Киргизия","lat":41.4644,"lon":74.5552,"weight":0.18,"level1":null},{"name":"Китай","lat":36.6254,"lon":103.9034,"weight":0.75,"level1":[{"name":"Китай","weight":0.42,"level2":null},{"name":"Гонконг","weight":0.07,"level2":null},{"name":"Пекин","weight":0.1,"level2":null},{"name":"Хайнань","weight":0.11,"level2":null},{"name":"Шанхай","weight":0.05,"level2":null}]},{"name":"Корея","lat":36.4512,"lon":127.8611,"weight":0.07,"level1":null},{"name":"Куба","lat":21.6105,"lon":-78.9603,"weight":0.74,"level1":[{"name":"Куба","weight":0.65,"level2":null},{"name":"Варадеро","weight":0.06,"level2":null},{"name":"Гавана","weight":0.03,"level2":null}]},{"name":"Латвия","lat":56.8539,"lon":24.9276,"weight":0.1,"level1":[{"name":"Латвия","weight":0.04,"level2":null},{"name":"Рига","weight":0.06,"level2":null}]},{"name":"Литва","lat":55.3373,"lon":23.8836,"weight":0.06,"level1":null},{"name":"Маврикий","lat":-20.2858,"lon":57.568,"weight":0.04,"level1":null},{"name":"Малайзия","lat":3.6061,"lon":114.7126,"weight":0.06,"level1":null},{"name":"Мальдивы","lat":1.9123,"lon":73.5401,"weight":0.5,"level1":[{"name":"Мальдивы","weight":0.42,"level2":null},{"name":"Мале","weight":0.08,"level2":null}]},{"name":"Мальта","lat":35.8906,"lon":14.4395,"weight":0.09,"level1":null},{"name":"Марокко","lat":29.13,"lon":-8.8709,"weight":0.14,"level1":[{"name":"Марокко","weight":0.1,"level2":null},{"name":"Агадир","weight":0.04,"level2":null}]},{"name":"Мексика","lat":23.9405,"lon":-102.5263,"weight":0.18,"level1":null},{"name":"Мьянма","lat":21.1925,"lon":96.518,"weight":0.05,"level1":null},{"name":"Нидерланды","lat":52.2458,"lon":5.5652,"weight":0.2,"level1":[{"name":"Нидерланды","weight":0.09,"level2":null},{"name":"Амстердам","weight":0.11,"level2":null}]},{"name":"Норвегия","lat":64.239,"lon":13.9506,"weight":0.08,"level1":null},{"name":"ОАЭ","lat":23.9073,"lon":54.3341,"weight":1.43,"level1":[{"name":"ОАЭ","weight":0.24,"level2":null},{"name":"Абу-Даби","weight":0.06,"level2":null},{"name":"Аджман","weight":0.05,"level2":null},{"name":"Дубай","weight":0.61,"level2":null},{"name":"Рас-эль-Хайма","weight":0.17,"level2":null},{"name":"Фуджейра","weight":0.04,"level2":null},{"name":"Шарджа","weight":0.26,"level2":null}]},{"name":"Польша","lat":52.129,"lon":19.3937,"weight":0.15,"level1":[{"name":"Польша","weight":0.11,"level2":null},{"name":"Варшава","weight":0.04,"level2":null}]},{"name":"Португалия","lat":39.68,"lon":-7.9687,"weight":0.29,"level1":[{"name":"Португалия","weight":0.18,"level2":null},{"name":"Лиссабон","weight":0.06,"level2":null},{"name":"Мадейра","weight":0.05,"level2":null}]},{"name":"Россия","lat":61.6987,"lon":99.5054,"weight":22.49,"level1":[{"name":"Россия","weight":2.18,"level2":null},{"name":"Республика Алтай","weight":0.15,"level2":[{"name":"Республика Алтай","weight":0.07},{"name":"Белокуриха","weight":0.08}]},{"name":"Байкал","weight":0.07,"level2":null},{"name":"Башкортостан","weight":0.39,"level2":[{"name":"Башкортостан","weight":0.29},{"name":"Уфа","weight":0.1}]},{"name":"Владимирская область","weight":0.12,"level2":[{"name":"Владимирская область","weight":0.03},{"name":"Владимир","weight":0.04},{"name":"Гусь-Хрустальный","weight":0.05}]},{"name":"Волгоградская область","weight":0.09,"level2":[{"name":"Волгоградская область","weight":0.02},{"name":"Волгоград","weight":0.07}]},{"name":"Вологодская область","weight":0.05,"level2":null},{"name":"Ивановская область","weight":0.08,"level2":null},{"name":"Иркутская область","weight":0.03,"level2":[{"name":"Иркутск","weight":0.03}]},{"name":"Калининградская область","weight":0.06,"level2":[{"name":"Калининградская область","weight":0.02},{"name":"Калининград","weight":0.04}]},{"name":"Калужская область","weight":0.03,"level2":null},{"name":"Камчатский край","weight":0.04,"level2":null},{"name":"Карелия","weight":0.05,"level2":null},{"name":"Кемеровская область","weight":0.06,"level2":null},{"name":"Костромская область","weight":0.05,"level2":[{"name":"Костромская область","weight":0.02},{"name":"Кострома","weight":0.03}]},{"name":"Краснодарский край","weight":6.87,"level2":[{"name":"Краснодарский край","weight":0.13},{"name":"Анапа","weight":1.5},{"name":"Геленджик","weight":0.76},{"name":"Ейск","weight":0.08},{"name":"Краснодар","weight":0.05},{"name":"Новороссийск","weight":0.03},{"name":"Сочи","weight":3.82},{"name":"Темрюкский район","weight":0.21},{"name":"Туапсе","weight":0.29}]},{"name":"Крым","weight":4.04,"level2":[{"name":"Крым","weight":1.59},{"name":"Алушта","weight":0.41},{"name":"Евпатория","weight":0.32},{"name":"Канака","weight":0.03},{"name":"Коктебель","weight":0.09},{"name":"Кореиз","weight":0.05},{"name":"Саки","weight":0.1},{"name":"Севастополь","weight":0.18},{"name":"Симферополь","weight":0.09},{"name":"Судак","weight":0.26},{"name":"Феодосия","weight":0.18},{"name":"Ялта","weight":0.74}]},{"name":"Курганская область","weight":0.11,"level2":null},{"name":"Ленинградская область","weight":0.07,"level2":null},{"name":"Москва","weight":1.29,"level2":null},{"name":"Московская область","weight":0.21,"level2":null},{"name":"Нижегородская область","weight":0.2,"level2":[{"name":"Нижегородская область","weight":0.03},{"name":"Нижний Новгород","weight":0.17}]},{"name":"Новосибирская область","weight":0.07,"level2":[{"name":"Новосибирская область","weight":0.01},{"name":"Новосибирск","weight":0.06}]},{"name":"Омская область","weight":0.05,"level2":[{"name":"Омская область","weight":0.01},{"name":"Омск","weight":0.04}]},{"name":"Оренбургская область","weight":0.17,"level2":[{"name":"Оренбургская область","weight":0.03},{"name":"Соль-Илецкий район","weight":0.14}]},{"name":"Пермский край","weight":0.45,"level2":[{"name":"Пермский край","weight":0.16},{"name":"Пермь","weight":0.13},{"name":"Усть-Качка","weight":0.16}]},{"name":"Приморский край","weight":0.06,"level2":[{"name":"Приморский край","weight":0.01},{"name":"Владивосток","weight":0.05}]},{"name":"Ростовская область","weight":0.1,"level2":[{"name":"Ростовская область","weight":0.02},{"name":"Ростов-на-Дону","weight":0.08}]},{"name":"Самарская область","weight":0.13,"level2":[{"name":"Самарская область","weight":0.01},{"name":"Самара","weight":0.05},{"name":"Тольятти","weight":0.07}]},{"name":"Санкт-Петербург","weight":1.3,"level2":null},{"name":"Саратовская область","weight":0.04,"level2":null},{"name":"Свердловская область","weight":1.02,"level2":[{"name":"Свердловская область","weight":0.73},{"name":"Каменск-Уральский","weight":0.09},{"name":"Камышлов","weight":0.1},{"name":"Первоуральск","weight":0.1}]},{"name":"Ставропольский край","weight":0.23,"level2":[{"name":"Ставропольский край","weight":0.02},{"name":"Ессентуки","weight":0.07},{"name":"Железноводск","weight":0.03},{"name":"Кисловодск","weight":0.08},{"name":"Пятигорск","weight":0.03}]},{"name":"Татарстан","weight":0.5,"level2":[{"name":"Татарстан","weight":0.03},{"name":"Казань","weight":0.47}]},{"name":"Тверская область","weight":0.05,"level2":null},{"name":"Томская область","weight":0.05,"level2":null},{"name":"Тюменская область","weight":0.39,"level2":[{"name":"Тюменская область","weight":0.12},{"name":"Тобольск","weight":0.04},{"name":"Тюмень","weight":0.23}]},{"name":"Удмуртия","weight":0.03,"level2":null},{"name":"Ханты-Мансийский автономный округ","weight":0.1,"level2":[{"name":"Ханты-Мансийский автономный округ","weight":0.05},{"name":"Сургут","weight":0.05}]},{"name":"Челябинская область","weight":1.3,"level2":[{"name":"Челябинская область","weight":0.37},{"name":"Магнитогорск","weight":0.08},{"name":"Миасс","weight":0.17},{"name":"Чебаркуль","weight":0.04},{"name":"Челябинск","weight":0.64}]},{"name":"Чувашия","weight":0.08,"level2":null},{"name":"Ямало-Ненецкий автономный округ","weight":0.03,"level2":null},{"name":"Ярославская область","weight":0.1,"level2":[{"name":"Ярославская область","weight":0.05},{"name":"Ярославль","weight":0.05}]}]},{"name":"Румыния","lat":45.8395,"lon":24.9856,"weight":0.05,"level1":null},{"name":"США","lat":39.4959,"lon":-98.99,"weight":0.78,"level1":[{"name":"США","weight":0.38,"level2":null},{"name":"Вашингтон","weight":0.03,"level2":null},{"name":"Калифорния","weight":0.09,"level2":[{"name":"Калифорния","weight":0.04},{"name":"Лос-Анджелес","weight":0.05}]},{"name":"Марианские острова","weight":0.03,"level2":null},{"name":"Невада","weight":0.04,"level2":[{"name":"Невада","weight":0.01},{"name":"Лас-Вегас","weight":0.03}]},{"name":"Нью-Йорк","weight":0.14,"level2":null},{"name":"Флорида","weight":0.07,"level2":[{"name":"Флорида","weight":0.02},{"name":"Майами","weight":0.05}]}]},{"name":"Сейшельские Острова","lat":-4.678,"lon":55.4656,"weight":0.11,"level1":[{"name":"Сейшельские Острова","weight":0.08,"level2":null},{"name":"Маэ","weight":0.03,"level2":null}]},{"name":"Сербия","lat":44.0324,"lon":20.8068,"weight":0.07,"level1":null},{"name":"Сингапур","lat":1.2902,"lon":103.852,"weight":0.05,"level1":null},{"name":"Словения","lat":46.1195,"lon":14.8217,"weight":0.08,"level1":null},{"name":"Таджикистан","lat":39.0422,"lon":70.8482,"weight":0.05,"level1":null},{"name":"Таиланд","lat":15.1305,"lon":101.0178,"weight":2.51,"level1":[{"name":"Таиланд","weight":0.7,"level2":null},{"name":"Бангкок","weight":0.07,"level2":null},{"name":"Краби","weight":0.73,"level2":null},{"name":"Паттайя","weight":0.4,"level2":null},{"name":"Пхукет","weight":0.51,"level2":null},{"name":"Самуй","weight":0.1,"level2":null}]},{"name":"Тунис","lat":34.1146,"lon":9.5718,"weight":0.46,"level1":[{"name":"Тунис","weight":0.18,"level2":null},{"name":"Монастир","weight":0.07,"level2":null},{"name":"Сус","weight":0.06,"level2":null},{"name":"Хаммамет","weight":0.15,"level2":null}]},{"name":"Турция","lat":39.9113,"lon":32.8509,"weight":24.44,"level1":[{"name":"Турция","weight":2.85,"level2":null},{"name":"Авсаллар","weight":0.03,"level2":null},{"name":"Аланья","weight":6.95,"level2":[{"name":"Аланья","weight":6.8},{"name":"Конаклы","weight":0.1},{"name":"Махмутлар","weight":0.05}]},{"name":"Анталья","weight":0.83,"level2":null},{"name":"Белек","weight":1.22,"level2":null},{"name":"Бодрум","weight":0.22,"level2":null},{"name":"Даламан","weight":0.04,"level2":null},{"name":"Дидим","weight":0.05,"level2":null},{"name":"Кемер","weight":6.99,"level2":[{"name":"Кемер","weight":6.75},{"name":"Бельдиби","weight":0.12},{"name":"Гёйнюк","weight":0.08},{"name":"Чамьюва","weight":0.04}]},{"name":"Кушадасы","weight":0.05,"level2":null},{"name":"Мармарис","weight":1.36,"level2":null},{"name":"Памуккале","weight":0.03,"level2":null},{"name":"Сиде","weight":3.11,"level2":null},{"name":"Стамбул","weight":0.42,"level2":null},{"name":"Фетхие","weight":0.29,"level2":null}]},{"name":"Узбекистан","lat":41.7651,"lon":63.1501,"weight":0.07,"level1":null},{"name":"Украина","lat":48.4636,"lon":31.686,"weight":0.29,"level1":[{"name":"Украина","weight":0.25,"level2":null},{"name":"Одесская область","weight":0.04,"level2":[{"name":"Одесса","weight":0.04}]}]},{"name":"Филиппины","lat":15.9482,"lon":121.4232,"weight":0.1,"level1":null},{"name":"Финляндия","lat":64.5199,"lon":26.283,"weight":0.24,"level1":[{"name":"Финляндия","weight":0.17,"level2":null},{"name":"Хельсинки","weight":0.07,"level2":null}]},{"name":"Франция","lat":46.6218,"lon":2.452,"weight":1.07,"level1":[{"name":"Франция","weight":0.52,"level2":null},{"name":"Ницца","weight":0.06,"level2":null},{"name":"Париж","weight":0.49,"level2":null}]},{"name":"Хорватия","lat":45.1401,"lon":16.428,"weight":0.22,"level1":[{"name":"Хорватия","weight":0.19,"level2":null},{"name":"Дубровник","weight":0.03,"level2":null}]},{"name":"Черногория","lat":42.7848,"lon":19.2488,"weight":0.91,"level1":[{"name":"Черногория","weight":0.4,"level2":null},{"name":"Будва","weight":0.48,"level2":null},{"name":"Петровац","weight":0.03,"level2":null}]},{"name":"Чехия","lat":49.7391,"lon":15.3315,"weight":1.89,"level1":[{"name":"Чехия","weight":0.59,"level2":null},{"name":"Карловы Вары","weight":0.27,"level2":null},{"name":"Прага","weight":1.03,"level2":null}]},{"name":"Швейцария","lat":46.8002,"lon":8.2292,"weight":0.14,"level1":[{"name":"Швейцария","weight":0.1,"level2":null},{"name":"Цюрих","weight":0.04,"level2":null}]},{"name":"Швеция","lat":62.8218,"lon":16.7354,"weight":0.08,"level1":null},{"name":"Шри-Ланка","lat":7.6416,"lon":80.692,"weight":0.44,"level1":[{"name":"Шри-Ланка","weight":0.36,"level2":null},{"name":"Унаватуна","weight":0.04,"level2":null},{"name":"Хиккадува","weight":0.04,"level2":null}]},{"name":"Эстония","lat":58.6837,"lon":25.8387,"weight":0.07,"level1":[{"name":"Эстония","weight":0.03,"level2":null},{"name":"Таллинн","weight":0.04,"level2":null}]},{"name":"ЮАР","lat":-29.0021,"lon":25.0804,"weight":0.43,"level1":null},{"name":"Япония","lat":36.6536,"lon":137.9813,"weight":0.11,"level1":null}]},{"reg":"Казань","regions":[{"name":"Абхазия","lat":42.9892,"lon":40.9835,"weight":2.4,"level1":[{"name":"Абхазия","weight":0.78,"level2":null},{"name":"Гагра","weight":0.79,"level2":null},{"name":"Гудаута","weight":0.04,"level2":null},{"name":"Новый Афон","weight":0.09,"level2":null},{"name":"Пицунда","weight":0.48,"level2":null},{"name":"Сухум","weight":0.09,"level2":null},{"name":"Цандрипш","weight":0.13,"level2":null}]},{"name":"Австралия","lat":-25.5788,"lon":134.3596,"weight":0.13,"level1":null},{"name":"Австрия","lat":47.5871,"lon":14.1413,"weight":0.37,"level1":[{"name":"Австрия","weight":0.17,"level2":null},{"name":"Вена","weight":0.16,"level2":null},{"name":"Зальцбург","weight":0.04,"level2":null}]},{"name":"Азербайджан","lat":40.36,"lon":47.6515,"weight":0.08,"level1":[{"name":"Азербайджан","weight":0.05,"level2":null},{"name":"Баку","weight":0.03,"level2":null}]},{"name":"Албания","lat":41.1394,"lon":20.0646,"weight":0.07,"level1":null},{"name":"Андорра","lat":42.5453,"lon":1.5763,"weight":0.04,"level1":null},{"name":"Аргентина","lat":-35.1949,"lon":-65.102,"weight":0.04,"level1":null},{"name":"Армения","lat":40.2927,"lon":44.9395,"weight":0.15,"level1":null},{"name":"Беларусь","lat":53.5312,"lon":28.031,"weight":0.26,"level1":[{"name":"Беларусь","weight":0.17,"level2":null},{"name":"Минская область","weight":0.09,"level2":[{"name":"Минская область","weight":0.01},{"name":"Минск","weight":0.08}]}]},{"name":"Бельгия","lat":50.6412,"lon":4.6606,"weight":0.2,"level1":[{"name":"Бельгия","weight":0.15,"level2":null},{"name":"Брюссель","weight":0.05,"level2":null}]},{"name":"Болгария","lat":42.7574,"lon":25.2387,"weight":1.49,"level1":[{"name":"Болгария","weight":1.28,"level2":null},{"name":"Золотые Пески","weight":0.08,"level2":null},{"name":"Несебыр","weight":0.03,"level2":null},{"name":"Свети-Влас","weight":0.04,"level2":null},{"name":"Солнечный берег","weight":0.06,"level2":null}]},{"name":"Бразилия","lat":-10.7765,"lon":-53.069,"weight":0.17,"level1":[{"name":"Бразилия","weight":0.12,"level2":null},{"name":"Рио-де-Жанейро","weight":0.05,"level2":null}]},{"name":"Великобритания","lat":53.9446,"lon":-2.5507,"weight":0.56,"level1":[{"name":"Великобритания","weight":0.15,"level2":null},{"name":"Англия","weight":0.36,"level2":[{"name":"Англия","weight":0.07},{"name":"Лондон","weight":0.29}]},{"name":"Шотландия","weight":0.05,"level2":null}]},{"name":"Венгрия","lat":47.1652,"lon":19.4123,"weight":0.32,"level1":[{"name":"Венгрия","weight":0.1,"level2":null},{"name":"Будапешт","weight":0.17,"level2":null},{"name":"Хевиз","weight":0.05,"level2":null}]},{"name":"Вьетнам","lat":15.377,"lon":109.1423,"weight":0.9,"level1":[{"name":"Вьетнам","weight":0.49,"level2":null},{"name":"Нячанг","weight":0.32,"level2":null},{"name":"Фантхьет","weight":0.09,"level2":null}]},{"name":"Германия","lat":51.1215,"lon":10.4008,"weight":1.05,"level1":[{"name":"Германия","weight":0.53,"level2":null},{"name":"Бавария","weight":0.22,"level2":[{"name":"Бавария","weight":0.03},{"name":"Мюнхен","weight":0.19}]},{"name":"Баден-Баден","weight":0.04,"level2":null},{"name":"Берлин","weight":0.17,"level2":null},{"name":"Дюссельдорф","weight":0.05,"level2":null},{"name":"Франкфурт-на-Майне","weight":0.04,"level2":null}]},{"name":"Греция","lat":39.3475,"lon":22.5714,"weight":4.57,"level1":[{"name":"Греция","weight":0.79,"level2":null},{"name":"Афины","weight":0.1,"level2":null},{"name":"Ионические острова","weight":0.17,"level2":[{"name":"Ионические острова","weight":0.01},{"name":"Закинф","weight":0.04},{"name":"Корфу","weight":0.12}]},{"name":"Кос","weight":0.04,"level2":null},{"name":"Крит","weight":2.21,"level2":null},{"name":"Родос","weight":0.97,"level2":null},{"name":"Санторини","weight":0.08,"level2":null},{"name":"Халкидики","weight":0.21,"level2":null}]},{"name":"Грузия","lat":41.6648,"lon":43.9044,"weight":0.14,"level1":[{"name":"Грузия","weight":0.1,"level2":null},{"name":"Тбилиси","weight":0.04,"level2":null}]},{"name":"Дания","lat":56.2623,"lon":9.3364,"weight":0.12,"level1":[{"name":"Дания","weight":0.07,"level2":null},{"name":"Копенгаген","weight":0.05,"level2":null}]},{"name":"Доминиканская Республика","lat":18.8973,"lon":-70.5,"weight":0.36,"level1":[{"name":"Доминиканская Республика","weight":0.24,"level2":null},{"name":"Пунта-Кана","weight":0.12,"level2":null}]},{"name":"Египет","lat":26.5054,"lon":29.8761,"weight":14.74,"level1":[{"name":"Египет","weight":2.31,"level2":null},{"name":"Дахаб","weight":0.04,"level2":null},{"name":"Макади-Бэй","weight":0.86,"level2":null},{"name":"Марса-Алам","weight":0.17,"level2":null},{"name":"Сафага","weight":0.18,"level2":null},{"name":"Сахль-Хашиш","weight":0.28,"level2":null},{"name":"Сома-бэй","weight":0.14,"level2":null},{"name":"Таба","weight":0.08,"level2":null},{"name":"Хургада","weight":4.1,"level2":null},{"name":"Шарм-эль-Шейх","weight":6.53,"level2":null},{"name":"Эль-Гуна","weight":0.05,"level2":null}]},{"name":"Израиль","lat":31.552,"lon":35.0611,"weight":0.36,"level1":[{"name":"Израиль","weight":0.22,"level2":null},{"name":"Иерусалим","weight":0.05,"level2":null},{"name":"Тель-Авив","weight":0.06,"level2":null},{"name":"Эйлат","weight":0.03,"level2":null}]},{"name":"Индия","lat":22.4844,"lon":79.7141,"weight":0.47,"level1":[{"name":"Индия","weight":0.33,"level2":null},{"name":"Гоа","weight":0.14,"level2":null}]},{"name":"Индонезия","lat":-0.2094,"lon":114.0046,"weight":0.35,"level1":[{"name":"Индонезия","weight":0.14,"level2":null},{"name":"Бали","weight":0.21,"level2":null}]},{"name":"Иордания","lat":31.2481,"lon":36.7877,"weight":0.04,"level1":null},{"name":"Ирландия","lat":53.1851,"lon":-8.1468,"weight":0.07,"level1":null},{"name":"Испания","lat":40.3877,"lon":-3.5574,"weight":2.83,"level1":[{"name":"Испания","weight":0.99,"level2":null},{"name":"Балеарские острова","weight":0.29,"level2":[{"name":"Балеарские острова","weight":0.03},{"name":"Ибица","weight":0.04},{"name":"Майорка","weight":0.22}]},{"name":"Барселона","weight":0.24,"level2":null},{"name":"Канарские острова","weight":0.29,"level2":[{"name":"Канарские острова","weight":0.07},{"name":"Тенерифе","weight":0.22}]},{"name":"Коста-Бланка","weight":0.08,"level2":null},{"name":"Коста-Брава","weight":0.12,"level2":[{"name":"Коста-Брава","weight":0.02},{"name":"Льорет-де-Мар","weight":0.1}]},{"name":"Коста-Дорада","weight":0.59,"level2":[{"name":"Коста-Дорада","weight":0.44},{"name":"Салоу","weight":0.15}]},{"name":"Коста-дель-Маресме","weight":0.2,"level2":null},{"name":"Коста-дель-Соль","weight":0.03,"level2":null}]},{"name":"Италия","lat":43.5292,"lon":12.162,"weight":2.37,"level1":[{"name":"Италия","weight":0.97,"level2":null},{"name":"Венето","weight":0.18,"level2":[{"name":"Венето","weight":0.06},{"name":"Венеция","weight":0.12}]},{"name":"Лигурия","weight":0.17,"level2":[{"name":"Лигурия","weight":0.04},{"name":"Генуя","weight":0.13}]},{"name":"Ломбардия","weight":0.31,"level2":[{"name":"Ломбардия","weight":0.02},{"name":"Милан","weight":0.29}]},{"name":"Рим","weight":0.21,"level2":null},{"name":"Сицилия","weight":0.15,"level2":null},{"name":"Тоскана","weight":0.07,"level2":[{"name":"Тоскана","weight":0.04},{"name":"Флоренция","weight":0.03}]},{"name":"Эмилия-Романья","weight":0.31,"level2":[{"name":"Эмилия-Романья","weight":0.21},{"name":"Римини","weight":0.1}]}]},{"name":"Йемен","lat":15.9347,"lon":47.5474,"weight":0.03,"level1":null},{"name":"Казахстан","lat":48.1362,"lon":67.1535,"weight":0.38,"level1":[{"name":"Казахстан","weight":0.24,"level2":null},{"name":"Актау","weight":0.04,"level2":null},{"name":"Алматы","weight":0.05,"level2":null},{"name":"Астана","weight":0.05,"level2":null}]},{"name":"Камбоджа","lat":12.7109,"lon":104.9169,"weight":0.05,"level1":null},{"name":"Канада","lat":62.5367,"lon":-96.3924,"weight":0.11,"level1":null},{"name":"Кения","lat":0.606,"lon":37.817,"weight":0.05,"level1":null},{"name":"Кипр","lat":35.2804,"lon":33.6017,"weight":3.24,"level1":[{"name":"Кипр","weight":1.09,"level2":null},{"name":"Айя-Напа","weight":0.88,"level2":null},{"name":"Ларнака","weight":0.07,"level2":null},{"name":"Лимасол","weight":0.2,"level2":null},{"name":"Пафос","weight":0.57,"level2":null},{"name":"Протарас","weight":0.43,"level2":null}]},{"name":"Киргизия","lat":41.4644,"lon":74.5552,"weight":0.04,"level1":null},{"name":"Китай","lat":36.6254,"lon":103.9034,"weight":0.62,"level1":[{"name":"Китай","weight":0.33,"level2":null},{"name":"Гонконг","weight":0.06,"level2":null},{"name":"Пекин","weight":0.09,"level2":null},{"name":"Хайнань","weight":0.1,"level2":null},{"name":"Шанхай","weight":0.04,"level2":null}]},{"name":"Корея","lat":36.4512,"lon":127.8611,"weight":0.18,"level1":[{"name":"Корея","weight":0.11,"level2":null},{"name":"Сеул","weight":0.07,"level2":null}]},{"name":"Коста-Рика","lat":9.9748,"lon":-84.1939,"weight":0.04,"level1":null},{"name":"Куба","lat":21.6105,"lon":-78.9603,"weight":0.7,"level1":[{"name":"Куба","weight":0.62,"level2":null},{"name":"Варадеро","weight":0.08,"level2":null}]},{"name":"Латвия","lat":56.8539,"lon":24.9276,"weight":0.07,"level1":[{"name":"Латвия","weight":0.04,"level2":null},{"name":"Рига","weight":0.03,"level2":null}]},{"name":"Литва","lat":55.3373,"lon":23.8836,"weight":0.2,"level1":[{"name":"Литва","weight":0.12,"level2":null},{"name":"Вильнюс","weight":0.05,"level2":null},{"name":"Друскининкай","weight":0.03,"level2":null}]},{"name":"Маврикий","lat":-20.2858,"lon":57.568,"weight":0.16,"level1":null},{"name":"Малайзия","lat":3.6061,"lon":114.7126,"weight":0.1,"level1":[{"name":"Малайзия","weight":0.06,"level2":null},{"name":"Куала-Лумпур","weight":0.04,"level2":null}]},{"name":"Мальдивы","lat":1.9123,"lon":73.5401,"weight":0.6,"level1":[{"name":"Мальдивы","weight":0.51,"level2":null},{"name":"Мале","weight":0.09,"level2":null}]},{"name":"Мальта","lat":35.8906,"lon":14.4395,"weight":0.12,"level1":null},{"name":"Марокко","lat":29.13,"lon":-8.8709,"weight":0.23,"level1":[{"name":"Марокко","weight":0.15,"level2":null},{"name":"Агадир","weight":0.08,"level2":null}]},{"name":"Мексика","lat":23.9405,"lon":-102.5263,"weight":0.17,"level1":null},{"name":"Нидерланды","lat":52.2458,"lon":5.5652,"weight":0.25,"level1":[{"name":"Нидерланды","weight":0.12,"level2":null},{"name":"Амстердам","weight":0.13,"level2":null}]},{"name":"Новая Зеландия","lat":-43.9482,"lon":170.5025,"weight":0.03,"level1":null},{"name":"Норвегия","lat":64.239,"lon":13.9506,"weight":0.17,"level1":null},{"name":"ОАЭ","lat":23.9073,"lon":54.3341,"weight":1.84,"level1":[{"name":"ОАЭ","weight":0.4,"level2":null},{"name":"Абу-Даби","weight":0.08,"level2":null},{"name":"Дубай","weight":0.8,"level2":null},{"name":"Рас-эль-Хайма","weight":0.26,"level2":null},{"name":"Фуджейра","weight":0.04,"level2":null},{"name":"Шарджа","weight":0.26,"level2":null}]},{"name":"Оман","lat":20.5696,"lon":56.098,"weight":0.04,"level1":null},{"name":"Польша","lat":52.129,"lon":19.3937,"weight":0.18,"level1":[{"name":"Польша","weight":0.13,"level2":null},{"name":"Варшава","weight":0.05,"level2":null}]},{"name":"Португалия","lat":39.68,"lon":-7.9687,"weight":0.18,"level1":[{"name":"Португалия","weight":0.08,"level2":null},{"name":"Лиссабон","weight":0.1,"level2":null}]},{"name":"Россия","lat":61.6987,"lon":99.5054,"weight":21.39,"level1":[{"name":"Россия","weight":2.27,"level2":null},{"name":"Астраханская область","weight":0.04,"level2":[{"name":"Астрахань","weight":0.04}]},{"name":"Байкал","weight":0.08,"level2":null},{"name":"Башкортостан","weight":0.21,"level2":[{"name":"Башкортостан","weight":0.09},{"name":"Уфа","weight":0.12}]},{"name":"Владимирская область","weight":0.11,"level2":[{"name":"Владимирская область","weight":0.02},{"name":"Владимир","weight":0.04},{"name":"Суздаль","weight":0.05}]},{"name":"Волгоградская область","weight":0.1,"level2":[{"name":"Волгоград","weight":0.1}]},{"name":"Вологодская область","weight":0.03,"level2":null},{"name":"Воронежская область","weight":0.04,"level2":null},{"name":"Ивановская область","weight":0.13,"level2":[{"name":"Ивановская область","weight":0.09},{"name":"Плёс","weight":0.04}]},{"name":"Иркутская область","weight":0.03,"level2":null},{"name":"Кабардино-Балкария","weight":0.03,"level2":null},{"name":"Калининградская область","weight":0.11,"level2":[{"name":"Калининградская область","weight":0.04},{"name":"Калининград","weight":0.07}]},{"name":"Карелия","weight":0.12,"level2":null},{"name":"Кемеровская область","weight":0.07,"level2":null},{"name":"Кировская область","weight":0.03,"level2":null},{"name":"Краснодарский край","weight":5.78,"level2":[{"name":"Краснодарский край","weight":0.34},{"name":"Анапа","weight":1.27},{"name":"Геленджик","weight":0.85},{"name":"Краснодар","weight":0.08},{"name":"Новороссийск","weight":0.05},{"name":"Сочи","weight":2.67},{"name":"Темрюкский район","weight":0.06},{"name":"Туапсе","weight":0.46}]},{"name":"Крым","weight":3.13,"level2":[{"name":"Крым","weight":1.58},{"name":"Алушта","weight":0.37},{"name":"Евпатория","weight":0.25},{"name":"Коктебель","weight":0.05},{"name":"Саки","weight":0.07},{"name":"Севастополь","weight":0.15},{"name":"Симферополь","weight":0.07},{"name":"Судак","weight":0.1},{"name":"Феодосия","weight":0.07},{"name":"Ялта","weight":0.42}]},{"name":"Ленинградская область","weight":0.05,"level2":null},{"name":"Марий Эл","weight":0.17,"level2":[{"name":"Йошкар-Ола","weight":0.17}]},{"name":"Мордовия","weight":0.04,"level2":null},{"name":"Москва","weight":1.67,"level2":null},{"name":"Московская область","weight":0.26,"level2":[{"name":"Московская область","weight":0.21},{"name":"Сергиев Посад","weight":0.05}]},{"name":"Нижегородская область","weight":0.31,"level2":[{"name":"Нижегородская область","weight":0.03},{"name":"Дивеево","weight":0.03},{"name":"Нижний Новгород","weight":0.25}]},{"name":"Новосибирская область","weight":0.06,"level2":[{"name":"Новосибирская область","weight":0.01},{"name":"Новосибирск","weight":0.05}]},{"name":"Оренбургская область","weight":0.2,"level2":[{"name":"Оренбургская область","weight":0.02},{"name":"Соль-Илецкий район","weight":0.18}]},{"name":"Пензенская область","weight":0.08,"level2":[{"name":"Пензенская область","weight":0.01},{"name":"Пенза","weight":0.07}]},{"name":"Пермский край","weight":0.12,"level2":[{"name":"Пермский край","weight":0.01},{"name":"Пермь","weight":0.11}]},{"name":"Приморский край","weight":0.04,"level2":[{"name":"Приморский край","weight":0.01},{"name":"Владивосток","weight":0.03}]},{"name":"Ростовская область","weight":0.11,"level2":[{"name":"Ростовская область","weight":0.01},{"name":"Ростов-на-Дону","weight":0.1}]},{"name":"Самарская область","weight":0.18,"level2":[{"name":"Самарская область","weight":0.05},{"name":"Самара","weight":0.08},{"name":"Тольятти","weight":0.05}]},{"name":"Санкт-Петербург","weight":1.52,"level2":null},{"name":"Саратовская область","weight":0.05,"level2":[{"name":"Саратов","weight":0.05}]},{"name":"Свердловская область","weight":0.19,"level2":[{"name":"Свердловская область","weight":0.02},{"name":"Екатеринбург","weight":0.17}]},{"name":"Смоленская область","weight":0.03,"level2":null},{"name":"Ставропольский край","weight":0.4,"level2":[{"name":"Ставропольский край","weight":0.02},{"name":"Ессентуки","weight":0.06},{"name":"Кисловодск","weight":0.28},{"name":"Пятигорск","weight":0.04}]},{"name":"Татарстан","weight":2.31,"level2":[{"name":"Татарстан","weight":1.75},{"name":"Альметьевск","weight":0.08},{"name":"Елабуга","weight":0.12},{"name":"Лениногорский район","weight":0.16},{"name":"Нижнекамск","weight":0.1},{"name":"Свияжск","weight":0.1}]},{"name":"Тверская область","weight":0.06,"level2":null},{"name":"Тульская область","weight":0.04,"level2":[{"name":"Тульская область","weight":0.01},{"name":"Тула","weight":0.03}]},{"name":"Тюменская область","weight":0.16,"level2":[{"name":"Тюменская область","weight":0.02},{"name":"Тюмень","weight":0.14}]},{"name":"Удмуртия","weight":0.13,"level2":[{"name":"Удмуртия","weight":0.01},{"name":"Варзи-Ятчи","weight":0.06},{"name":"Ижевск","weight":0.06}]},{"name":"Ульяновская область","weight":0.11,"level2":[{"name":"Ульяновская область","weight":0.05},{"name":"Ульяновск","weight":0.06}]},{"name":"Хабаровский край","weight":0.05,"level2":[{"name":"Хабаровск","weight":0.05}]},{"name":"Ханты-Мансийский автономный округ","weight":0.05,"level2":null},{"name":"Челябинская область","weight":0.11,"level2":[{"name":"Челябинская область","weight":0.04},{"name":"Челябинск","weight":0.07}]},{"name":"Чувашия","weight":0.43,"level2":[{"name":"Чувашия","weight":0.27},{"name":"Чебоксары","weight":0.16}]},{"name":"Ярославская область","weight":0.15,"level2":[{"name":"Ярославская область","weight":0.04},{"name":"Углич","weight":0.05},{"name":"Ярославль","weight":0.06}]}]},{"name":"Румыния","lat":45.8395,"lon":24.9856,"weight":0.05,"level1":null},{"name":"США","lat":39.4959,"lon":-98.99,"weight":0.9,"level1":[{"name":"США","weight":0.45,"level2":null},{"name":"Калифорния","weight":0.07,"level2":[{"name":"Калифорния","weight":0.03},{"name":"Лос-Анджелес","weight":0.04}]},{"name":"Невада","weight":0.06,"level2":[{"name":"Лас-Вегас","weight":0.06}]},{"name":"Нью-Йорк","weight":0.24,"level2":null},{"name":"Флорида","weight":0.08,"level2":[{"name":"Флорида","weight":0.04},{"name":"Майами","weight":0.04}]}]},{"name":"Саудовская Аравия","lat":24.1241,"lon":44.5505,"weight":0.03,"level1":null},{"name":"Сейшельские Острова","lat":-4.678,"lon":55.4656,"weight":0.26,"level1":[{"name":"Сейшельские Острова","weight":0.2,"level2":null},{"name":"Маэ","weight":0.06,"level2":null}]},{"name":"Сербия","lat":44.0324,"lon":20.8068,"weight":0.04,"level1":null},{"name":"Сингапур","lat":1.2902,"lon":103.852,"weight":0.05,"level1":null},{"name":"Словакия","lat":48.7075,"lon":19.4849,"weight":0.05,"level1":null},{"name":"Таджикистан","lat":39.0422,"lon":70.8482,"weight":0.06,"level1":null},{"name":"Таиланд","lat":15.1305,"lon":101.0178,"weight":2.37,"level1":[{"name":"Таиланд","weight":0.69,"level2":null},{"name":"Бангкок","weight":0.05,"level2":null},{"name":"Краби","weight":0.52,"level2":null},{"name":"Паттайя","weight":0.31,"level2":null},{"name":"Пхукет","weight":0.76,"level2":null},{"name":"Самуй","weight":0.04,"level2":null}]},{"name":"Тунис","lat":34.1146,"lon":9.5718,"weight":0.63,"level1":[{"name":"Тунис","weight":0.17,"level2":null},{"name":"Монастир","weight":0.1,"level2":null},{"name":"Набель","weight":0.07,"level2":null},{"name":"Сус","weight":0.08,"level2":null},{"name":"Хаммамет","weight":0.21,"level2":null}]},{"name":"Туркмения","lat":39.1941,"lon":59.1786,"weight":0.06,"level1":null},{"name":"Турция","lat":39.9113,"lon":32.8509,"weight":23.77,"level1":[{"name":"Турция","weight":3.57,"level2":null},{"name":"Аланья","weight":5.9,"level2":[{"name":"Аланья","weight":5.73},{"name":"Конаклы","weight":0.13},{"name":"Махмутлар","weight":0.04}]},{"name":"Анталья","weight":0.77,"level2":null},{"name":"Белек","weight":1.47,"level2":null},{"name":"Бодрум","weight":0.41,"level2":null},{"name":"Даламан","weight":0.08,"level2":null},{"name":"Дидим","weight":0.18,"level2":null},{"name":"Измир","weight":0.05,"level2":null},{"name":"Кемер","weight":6.26,"level2":[{"name":"Кемер","weight":5.96},{"name":"Бельдиби","weight":0.11},{"name":"Гёйнюк","weight":0.06},{"name":"Кириш","weight":0.03},{"name":"Текирова","weight":0.05},{"name":"Чамьюва","weight":0.05}]},{"name":"Кушадасы","weight":0.09,"level2":null},{"name":"Мармарис","weight":1.61,"level2":null},{"name":"Сиде","weight":2.32,"level2":[{"name":"Сиде","weight":2.29},{"name":"Титреенгёль","weight":0.03}]},{"name":"Стамбул","weight":0.73,"level2":null},{"name":"Фетхие","weight":0.33,"level2":null}]},{"name":"Узбекистан","lat":41.7651,"lon":63.1501,"weight":0.18,"level1":[{"name":"Узбекистан","weight":0.08,"level2":null},{"name":"Бухара","weight":0.05,"level2":null},{"name":"Ташкент","weight":0.05,"level2":null}]},{"name":"Украина","lat":48.4636,"lon":31.686,"weight":0.28,"level1":[{"name":"Украина","weight":0.18,"level2":null},{"name":"Запорожская область","weight":0.04,"level2":null},{"name":"Киев","weight":0.06,"level2":null}]},{"name":"Филиппины","lat":15.9482,"lon":121.4232,"weight":0.09,"level1":null},{"name":"Финляндия","lat":64.5199,"lon":26.283,"weight":0.33,"level1":[{"name":"Финляндия","weight":0.27,"level2":null},{"name":"Хельсинки","weight":0.06,"level2":null}]},{"name":"Франция","lat":46.6218,"lon":2.452,"weight":1.3,"level1":[{"name":"Франция","weight":0.62,"level2":null},{"name":"Ницца","weight":0.06,"level2":null},{"name":"Париж","weight":0.56,"level2":null},{"name":"Французская Полинезия","weight":0.06,"level2":null}]},{"name":"Хорватия","lat":45.1401,"lon":16.428,"weight":0.33,"level1":[{"name":"Хорватия","weight":0.29,"level2":null},{"name":"Истрия","weight":0.04,"level2":null}]},{"name":"Черногория","lat":42.7848,"lon":19.2488,"weight":0.64,"level1":[{"name":"Черногория","weight":0.4,"level2":null},{"name":"Будва","weight":0.24,"level2":null}]},{"name":"Чехия","lat":49.7391,"lon":15.3315,"weight":1.21,"level1":[{"name":"Чехия","weight":0.36,"level2":null},{"name":"Карловы Вары","weight":0.2,"level2":null},{"name":"Прага","weight":0.65,"level2":null}]},{"name":"Швейцария","lat":46.8002,"lon":8.2292,"weight":0.19,"level1":null},{"name":"Швеция","lat":62.8218,"lon":16.7354,"weight":0.15,"level1":[{"name":"Швеция","weight":0.09,"level2":null},{"name":"Стокгольм","weight":0.06,"level2":null}]},{"name":"Шри-Ланка","lat":7.6416,"lon":80.692,"weight":0.4,"level1":[{"name":"Шри-Ланка","weight":0.32,"level2":null},{"name":"Унаватуна","weight":0.03,"level2":null},{"name":"Хиккадува","weight":0.05,"level2":null}]},{"name":"Эстония","lat":58.6837,"lon":25.8387,"weight":0.1,"level1":[{"name":"Эстония","weight":0.05,"level2":null},{"name":"Таллинн","weight":0.05,"level2":null}]},{"name":"Ямайка","lat":18.1578,"lon":-77.3112,"weight":0.03,"level1":null},{"name":"Япония","lat":36.6536,"lon":137.9813,"weight":0.21,"level1":[{"name":"Япония","weight":0.15,"level2":null},{"name":"Окинава","weight":0.03,"level2":null},{"name":"Токио","weight":0.03,"level2":null}]}]},{"reg":"Красноярск","regions":[{"name":"Абхазия","lat":42.9892,"lon":40.9835,"weight":1.5,"level1":[{"name":"Абхазия","weight":0.69,"level2":null},{"name":"Гагра","weight":0.47,"level2":null},{"name":"Гудаута","weight":0.05,"level2":null},{"name":"Новый Афон","weight":0.04,"level2":null},{"name":"Пицунда","weight":0.22,"level2":null},{"name":"Сухум","weight":0.03,"level2":null}]},{"name":"Австралия","lat":-25.5788,"lon":134.3596,"weight":0.19,"level1":[{"name":"Австралия","weight":0.15,"level2":null},{"name":"Сидней","weight":0.04,"level2":null}]},{"name":"Австрия","lat":47.5871,"lon":14.1413,"weight":0.23,"level1":[{"name":"Австрия","weight":0.13,"level2":null},{"name":"Вена","weight":0.1,"level2":null}]},{"name":"Азербайджан","lat":40.36,"lon":47.6515,"weight":0.15,"level1":[{"name":"Азербайджан","weight":0.1,"level2":null},{"name":"Баку","weight":0.05,"level2":null}]},{"name":"Андорра","lat":42.5453,"lon":1.5763,"weight":0.03,"level1":null},{"name":"Аргентина","lat":-35.1949,"lon":-65.102,"weight":0.04,"level1":null},{"name":"Армения","lat":40.2927,"lon":44.9395,"weight":0.09,"level1":null},{"name":"Беларусь","lat":53.5312,"lon":28.031,"weight":0.29,"level1":[{"name":"Беларусь","weight":0.18,"level2":null},{"name":"Минская область","weight":0.11,"level2":[{"name":"Минская область","weight":0.01},{"name":"Минск","weight":0.1}]}]},{"name":"Бельгия","lat":50.6412,"lon":4.6606,"weight":0.09,"level1":[{"name":"Бельгия","weight":0.06,"level2":null},{"name":"Брюссель","weight":0.03,"level2":null}]},{"name":"Болгария","lat":42.7574,"lon":25.2387,"weight":1.31,"level1":[{"name":"Болгария","weight":1.13,"level2":null},{"name":"Бургас","weight":0.03,"level2":null},{"name":"Золотые Пески","weight":0.09,"level2":null},{"name":"София","weight":0.06,"level2":null}]},{"name":"Бразилия","lat":-10.7765,"lon":-53.069,"weight":0.27,"level1":[{"name":"Бразилия","weight":0.21,"level2":null},{"name":"Рио-де-Жанейро","weight":0.06,"level2":null}]},{"name":"Великобритания","lat":53.9446,"lon":-2.5507,"weight":0.64,"level1":[{"name":"Великобритания","weight":0.23,"level2":null},{"name":"Англия","weight":0.35,"level2":[{"name":"Англия","weight":0.06},{"name":"Лондон","weight":0.29}]},{"name":"Шотландия","weight":0.06,"level2":null}]},{"name":"Венгрия","lat":47.1652,"lon":19.4123,"weight":0.35,"level1":[{"name":"Венгрия","weight":0.19,"level2":null},{"name":"Будапешт","weight":0.11,"level2":null},{"name":"Хевиз","weight":0.05,"level2":null}]},{"name":"Вьетнам","lat":15.377,"lon":109.1423,"weight":4.66,"level1":[{"name":"Вьетнам","weight":1.38,"level2":null},{"name":"Дананг","weight":0.04,"level2":null},{"name":"Нячанг","weight":2.73,"level2":null},{"name":"Фантхьет","weight":0.43,"level2":null},{"name":"Фукуок","weight":0.08,"level2":null}]},{"name":"Германия","lat":51.1215,"lon":10.4008,"weight":0.91,"level1":[{"name":"Германия","weight":0.53,"level2":null},{"name":"Бавария","weight":0.13,"level2":[{"name":"Бавария","weight":0.02},{"name":"Мюнхен","weight":0.11}]},{"name":"Берлин","weight":0.12,"level2":null},{"name":"Гамбург","weight":0.03,"level2":null},{"name":"Дрезден","weight":0.04,"level2":null},{"name":"Франкфурт-на-Майне","weight":0.06,"level2":null}]},{"name":"Греция","lat":39.3475,"lon":22.5714,"weight":2.43,"level1":[{"name":"Греция","weight":0.51,"level2":null},{"name":"Афины","weight":0.07,"level2":null},{"name":"Ионические острова","weight":0.11,"level2":[{"name":"Ионические острова","weight":0.01},{"name":"Закинф","weight":0.04},{"name":"Корфу","weight":0.06}]},{"name":"Крит","weight":1.33,"level2":[{"name":"Крит","weight":1.3},{"name":"Айос-Николаос","weight":0.03}]},{"name":"Родос","weight":0.26,"level2":null},{"name":"Санторини","weight":0.06,"level2":null},{"name":"Халкидики","weight":0.09,"level2":null}]},{"name":"Грузия","lat":41.6648,"lon":43.9044,"weight":0.09,"level1":null},{"name":"Дания","lat":56.2623,"lon":9.3364,"weight":0.14,"level1":[{"name":"Дания","weight":0.08,"level2":null},{"name":"Копенгаген","weight":0.06,"level2":null}]},{"name":"Доминиканская Республика","lat":18.8973,"lon":-70.5,"weight":0.39,"level1":[{"name":"Доминиканская Республика","weight":0.25,"level2":null},{"name":"Пунта-Кана","weight":0.14,"level2":null}]},{"name":"Египет","lat":26.5054,"lon":29.8761,"weight":8.73,"level1":[{"name":"Египет","weight":2.51,"level2":null},{"name":"Дахаб","weight":0.05,"level2":null},{"name":"Макади-Бэй","weight":0.32,"level2":null},{"name":"Марса-Алам","weight":0.11,"level2":null},{"name":"Нувейба","weight":0.03,"level2":null},{"name":"Сахль-Хашиш","weight":0.08,"level2":null},{"name":"Сома-бэй","weight":0.05,"level2":null},{"name":"Таба","weight":0.06,"level2":null},{"name":"Хургада","weight":3.19,"level2":null},{"name":"Шарм-эль-Шейх","weight":2.33,"level2":null}]},{"name":"Израиль","lat":31.552,"lon":35.0611,"weight":0.34,"level1":[{"name":"Израиль","weight":0.22,"level2":null},{"name":"Иерусалим","weight":0.05,"level2":null},{"name":"Тель-Авив","weight":0.04,"level2":null},{"name":"Эйлат","weight":0.03,"level2":null}]},{"name":"Индия","lat":22.4844,"lon":79.7141,"weight":0.55,"level1":[{"name":"Индия","weight":0.29,"level2":null},{"name":"Гоа","weight":0.26,"level2":null}]},{"name":"Индонезия","lat":-0.2094,"lon":114.0046,"weight":0.34,"level1":[{"name":"Индонезия","weight":0.1,"level2":null},{"name":"Бали","weight":0.24,"level2":null}]},{"name":"Иордания","lat":31.2481,"lon":36.7877,"weight":0.04,"level1":null},{"name":"Иран","lat":32.5674,"lon":54.3022,"weight":0.04,"level1":null},{"name":"Ирландия","lat":53.1851,"lon":-8.1468,"weight":0.04,"level1":null},{"name":"Исландия","lat":64.9836,"lon":-18.5771,"weight":0.08,"level1":null},{"name":"Испания","lat":40.3877,"lon":-3.5574,"weight":2.19,"level1":[{"name":"Испания","weight":0.79,"level2":null},{"name":"Балеарские острова","weight":0.36,"level2":[{"name":"Балеарские острова","weight":0.03},{"name":"Майорка","weight":0.33}]},{"name":"Барселона","weight":0.3,"level2":null},{"name":"Канарские острова","weight":0.29,"level2":[{"name":"Канарские острова","weight":0.06},{"name":"Тенерифе","weight":0.23}]},{"name":"Коста-Бланка","weight":0.05,"level2":null},{"name":"Коста-Брава","weight":0.06,"level2":[{"name":"Коста-Брава","weight":0.01},{"name":"Льорет-де-Мар","weight":0.05}]},{"name":"Коста-Дорада","weight":0.14,"level2":null},{"name":"Коста-дель-Маресме","weight":0.11,"level2":[{"name":"Коста-дель-Маресме","weight":0.07},{"name":"Мальграт-де-Мар","weight":0.04}]},{"name":"Мадрид","weight":0.09,"level2":null}]},{"name":"Италия","lat":43.5292,"lon":12.162,"weight":2,"level1":[{"name":"Италия","weight":0.83,"level2":null},{"name":"Венето","weight":0.14,"level2":[{"name":"Венето","weight":0.03},{"name":"Венеция","weight":0.11}]},{"name":"Кампания","weight":0.05,"level2":null},{"name":"Лацио","weight":0.03,"level2":null},{"name":"Лигурия","weight":0.05,"level2":null},{"name":"Ломбардия","weight":0.22,"level2":[{"name":"Милан","weight":0.22}]},{"name":"Рим","weight":0.33,"level2":null},{"name":"Сардиния","weight":0.04,"level2":null},{"name":"Сицилия","weight":0.06,"level2":null},{"name":"Тоскана","weight":0.09,"level2":[{"name":"Тоскана","weight":0.02},{"name":"Флоренция","weight":0.07}]},{"name":"Эмилия-Романья","weight":0.16,"level2":[{"name":"Эмилия-Романья","weight":0.08},{"name":"Римини","weight":0.08}]}]},{"name":"Казахстан","lat":48.1362,"lon":67.1535,"weight":0.13,"level1":[{"name":"Казахстан","weight":0.09,"level2":null},{"name":"Алматы","weight":0.04,"level2":null}]},{"name":"Камбоджа","lat":12.7109,"lon":104.9169,"weight":0.09,"level1":null},{"name":"Канада","lat":62.5367,"lon":-96.3924,"weight":0.15,"level1":null},{"name":"Кипр","lat":35.2804,"lon":33.6017,"weight":2.91,"level1":[{"name":"Кипр","weight":0.99,"level2":null},{"name":"Айя-Напа","weight":0.83,"level2":null},{"name":"Ларнака","weight":0.08,"level2":null},{"name":"Лимасол","weight":0.23,"level2":null},{"name":"Пафос","weight":0.37,"level2":null},{"name":"Протарас","weight":0.41,"level2":null}]},{"name":"Киргизия","lat":41.4644,"lon":74.5552,"weight":0.21,"level1":[{"name":"Киргизия","weight":0.18,"level2":null},{"name":"Бишкек","weight":0.03,"level2":null}]},{"name":"Китай","lat":36.6254,"lon":103.9034,"weight":1.44,"level1":[{"name":"Китай","weight":0.8,"level2":null},{"name":"Бэйдайхэ","weight":0.06,"level2":null},{"name":"Гонконг","weight":0.08,"level2":null},{"name":"Далянь","weight":0.08,"level2":null},{"name":"Маньчжурия","weight":0.06,"level2":null},{"name":"Пекин","weight":0.17,"level2":null},{"name":"Хайнань","weight":0.16,"level2":null},{"name":"Шанхай","weight":0.03,"level2":null}]},{"name":"Корея","lat":36.4512,"lon":127.8611,"weight":0.28,"level1":[{"name":"Корея","weight":0.15,"level2":null},{"name":"Сеул","weight":0.13,"level2":null}]},{"name":"Куба","lat":21.6105,"lon":-78.9603,"weight":0.42,"level1":[{"name":"Куба","weight":0.35,"level2":null},{"name":"Варадеро","weight":0.07,"level2":null}]},{"name":"Латвия","lat":56.8539,"lon":24.9276,"weight":0.14,"level1":[{"name":"Латвия","weight":0.07,"level2":null},{"name":"Рига","weight":0.07,"level2":null}]},{"name":"Литва","lat":55.3373,"lon":23.8836,"weight":0.09,"level1":null},{"name":"Люксембург","lat":49.7768,"lon":6.0923,"weight":0.03,"level1":null},{"name":"Малайзия","lat":3.6061,"lon":114.7126,"weight":0.25,"level1":[{"name":"Малайзия","weight":0.11,"level2":null},{"name":"Борнео","weight":0.08,"level2":null},{"name":"Куала-Лумпур","weight":0.06,"level2":null}]},{"name":"Мальдивы","lat":1.9123,"lon":73.5401,"weight":0.41,"level1":[{"name":"Мальдивы","weight":0.35,"level2":null},{"name":"Мале","weight":0.06,"level2":null}]},{"name":"Мальта","lat":35.8906,"lon":14.4395,"weight":0.09,"level1":null},{"name":"Марокко","lat":29.13,"lon":-8.8709,"weight":0.13,"level1":null},{"name":"Мексика","lat":23.9405,"lon":-102.5263,"weight":0.18,"level1":null},{"name":"Монако","lat":43.7329,"lon":7.4175,"weight":0.04,"level1":null},{"name":"Монголия","lat":46.8347,"lon":103.0676,"weight":0.07,"level1":null},{"name":"Непал","lat":28.2591,"lon":83.9442,"weight":0.03,"level1":null},{"name":"Нидерланды","lat":52.2458,"lon":5.5652,"weight":0.17,"level1":[{"name":"Нидерланды","weight":0.06,"level2":null},{"name":"Амстердам","weight":0.11,"level2":null}]},{"name":"Новая Зеландия","lat":-43.9482,"lon":170.5025,"weight":0.03,"level1":null},{"name":"Норвегия","lat":64.239,"lon":13.9506,"weight":0.12,"level1":null},{"name":"ОАЭ","lat":23.9073,"lon":54.3341,"weight":0.92,"level1":[{"name":"ОАЭ","weight":0.22,"level2":null},{"name":"Абу-Даби","weight":0.08,"level2":null},{"name":"Дубай","weight":0.48,"level2":null},{"name":"Рас-эль-Хайма","weight":0.03,"level2":null},{"name":"Шарджа","weight":0.11,"level2":null}]},{"name":"Польша","lat":52.129,"lon":19.3937,"weight":0.28,"level1":[{"name":"Польша","weight":0.22,"level2":null},{"name":"Варшава","weight":0.06,"level2":null}]},{"name":"Португалия","lat":39.68,"lon":-7.9687,"weight":0.13,"level1":[{"name":"Португалия","weight":0.09,"level2":null},{"name":"Лиссабон","weight":0.04,"level2":null}]},{"name":"Россия","lat":61.6987,"lon":99.5054,"weight":24.05,"level1":[{"name":"Россия","weight":2.4,"level2":null},{"name":"Республика Алтай","weight":1.18,"level2":[{"name":"Республика Алтай","weight":0.3},{"name":"Белокуриха","weight":0.88}]},{"name":"Алтайский край","weight":0.05,"level2":[{"name":"Барнаул","weight":0.05}]},{"name":"Байкал","weight":0.38,"level2":[{"name":"Байкал","weight":0.26},{"name":"Листвянка","weight":0.06},{"name":"Ольхон","weight":0.06}]},{"name":"Башкортостан","weight":0.04,"level2":[{"name":"Башкортостан","weight":0.01},{"name":"Уфа","weight":0.03}]},{"name":"Бурятия","weight":0.12,"level2":[{"name":"Бурятия","weight":0.06},{"name":"Аршан","weight":0.06}]},{"name":"Владимирская область","weight":0.11,"level2":[{"name":"Владимирская область","weight":0.06},{"name":"Суздаль","weight":0.05}]},{"name":"Волгоградская область","weight":0.05,"level2":[{"name":"Волгоград","weight":0.05}]},{"name":"Воронежская область","weight":0.03,"level2":null},{"name":"Ивановская область","weight":0.13,"level2":null},{"name":"Иркутская область","weight":0.15,"level2":[{"name":"Иркутская область","weight":0.04},{"name":"Иркутск","weight":0.11}]},{"name":"Калининградская область","weight":0.18,"level2":[{"name":"Калининградская область","weight":0.03},{"name":"Калининград","weight":0.11},{"name":"Светлогорск","weight":0.04}]},{"name":"Камчатский край","weight":0.05,"level2":null},{"name":"Карачаево-Черкесия","weight":0.03,"level2":null},